Latitude,Longitude,Store Name,Description,Icon,ID
21.879285,-159.459214,Starbucks:<br />Poipu Shopping Center - Koloa HI  (W),"2360 Kiahuna Plantation Drive<br>Koloa, HI 96756<br>(808) 742-5144",coffee,1
21.97116,-159.380923,Starbucks:<br />Kukui Grove - Lihue HI  (W),"3-2600 Kaumualii Highway #A8<br>Lihue, HI 96766<br>(808) 241-7034",coffee,2
21.971295,-159.375636,Starbucks:<br />Borders Kmart Kukui Center - Lihue HI  (W),"4303 Nawiliwili Road<br>Lihue, HI 96766<br>(808) 245-7562",coffee,3
21.979465,-159.34927,Starbucks:<br />LIH Rotunda (Kauai) - Lihue HI  (A),"LihueAirport  Unit 2  3901 Mokulele Loo<br>Lihue, HI 96766-970<br>(808) 245-8913",coffee,4
22.078248,-159.315957,Starbucks:<br />Kauai Village Shopping Center - Kapaa HI  (W),"4-831 Kuhio Highway #208<br>Kapaa, HI 96746<br>(808) 821-1334",coffee,5
21.434788,-158.18458,Starbucks:<br />Waianae Mall Shopping Center - Waianae HI,"86 Farrington Highway<br>Waianae, HI 96792<br>(808) 697-8279",coffee,6
21.343991,-158.116013,Starbucks:<br />Halekuai Center - Kapolei HI  (W),"563 Farrington Highway #101<br>Kapolei, HI 96707<br>(808) 674-8735",coffee,7
21.3341,-158.08179,"Starbucks:<br />Kapolei Parkway - Kapolei HI  (D, W)","338 Kamokila Boulevard #108<br>Kapolei, HI 96797<br>(808) 674-1941",coffee,8
21.648414,-158.061706,Starbucks:<br />Pupukea - Haleiwa HI  (W),"59-720 Kamehameha Highway<br>Haleiwa, HI 96712<br>(808) 638-0341",coffee,9
21.483994,-158.058557,Starbucks:<br />Schofield Barracks Main Store Mall - Schofield Barracks HI,"Bldg. 693<br>Schofield Barracks, HI 96857-720",coffee,10
21.3348,-158.0557,Starbucks:<br />Target Oahu Kapolei T-2411 - Kapolei HI,"4450 Kapolei Pkwy<br>Kapolei, HI 96707<br>(808) 457-3679",coffee,11
21.387129,-158.033009,Starbucks:<br />Kunia Shopping Center - Waipahu HI  (W),"94-673 Kupuohi Street<br>Waipahu, HI 96797<br>(808) 680-9221",coffee,12
21.333873,-158.024426,Starbucks:<br />Ewa Beach - Honolulu HI  (W),"91-1401 Fort Weaver Road<br>Honolulu, HI 96706<br>(808) 685-4594",coffee,13
21.457692,-158.016089,Starbucks:<br />Mililani Shopping Center - Mililani Town HI  (W),"95-221 Kipapa Drive<br>Mililani Town, HI 96789<br>(808) 625-5401",coffee,14
21.394206,-158.01416,Starbucks:<br />Waikele - Waipahu HI  (W),"94-799 Lumiaina Street<br>Waipahu, HI 96797<br>(808) 678-3418",coffee,15
21.454077,-158.006444,Starbucks:<br />Mililani Town Center - Mililani Town HI  (W),"95-1249 Meheula Parkway<br>Mililani Town, HI 96789<br>(808) 627-1846",coffee,16
21.426618,-158.001421,"Starbucks:<br />Laniakea DT - Waipahu HI  (D, W)","94-1221 Ka Uka Boulevard<br>Waipahu, HI 96797<br>(808) 680-9213",coffee,17
21.399388,-157.973787,Starbucks:<br />Pearl City Shops - Pearl City HI  (W),"1029 Makolu Street<br>Pearl City, HI 96782<br>(808) 455-1800",coffee,18
21.389718,-157.952167,Starbucks:<br />Waimalu Shopping Center - Aiea HI  (W),"98-1277 Kaahumanu Street<br>Aiea, HI 96701<br>(808) 484-5802",coffee,19
21.390634,-157.947709,Starbucks:<br />Pearlridge Mall - Aiea HI  (W),"98-1005 Moanalua Road<br>Aiea, HI 96701<br>(808) 484-9355",coffee,20
21.3891,-157.946269,Starbucks:<br />Borders Pearlridge - Aiea HI  (W),"98 Moanalua Road<br>Aiea, HI 96701<br>(808) 484-5772",coffee,21
21.387332,-157.941572,Starbucks:<br />Pearlridge Center - Aiea HI  (W),"98-125 Kaonohi Street<br>Aiea, HI 96701<br>(808) 484-9548",coffee,22
21.365403,-157.930782,Starbucks:<br />Stadium Marketplace - Aiea HI  (W),"4561 Salt Lake Boulevard<br>Aiea, HI 96818<br>(808) 488-9313",coffee,23
21.378766,-157.929876,Starbucks:<br />Aiea Shopping Center - Aiea HI  (W),"99-115 Aiea Heights Drive #125<br>Aiea, HI 96701<br>(808) 484-1488",coffee,24
21.341317,-157.929461,Starbucks:<br />Moanalua Shopping Center - Honolulu HI  (W),"930 Valkenburgh Street<br>Honolulu, HI 96818<br>(808) 422-2804",coffee,25
21.365684,-157.927421,Starbucks:<br />Target Oahu Honolulu West T-2410 - Honolulu HI,"4510 Salt Lake Blvd Ste D5<br>Honolulu, HI 96818<br>(808) 441-3118",coffee,26
21.332757,-157.920154,Starbucks:<br />HNL Central Concourse Food Court - Honolulu HI  (A),"300 Rogers Blvd<br>Honolulu, HI 96820",coffee,27
21.332757,-157.920154,Starbucks:<br />HNL EWA Concourse 27 - Honolulu HI  (A),"300 Rogers Boulevard<br>Honolulu, HI 96819<br>(808) 836-2566",coffee,28
21.332757,-157.920154,Starbucks:<br />HNL Inter Island Term  Gate 54 - Honolulu HI  (A),"300 Rogers Blvd.<br>Honolulu, HI 96820",coffee,29
21.332757,-157.920154,Starbucks:<br />HNL Inter-Island Terminal - Honolulu HI  (A),"300 Rogers Boulevard<br>Honolulu, HI 96819<br>(808) 836-2566",coffee,30
21.332757,-157.920154,Starbucks:<br />HNL Main Term Food Court - Honolulu HI  (A),"300 Rogers Blvd.<br>Honolulu, HI 96820<br>(808) 833-9939",coffee,31
21.332757,-157.920154,Starbucks:<br />HNL Pre-Security Lobby #5 - Honolulu HI  (A),"300 Rogers Boulevard<br>Honolulu, HI 96819<br>(808) 833-9939",coffee,32
21.332757,-157.920154,Starbucks:<br />HNL Staircase - Honolulu HI  (A),"300 Rogers Blvd.<br>Honolulu, HI 96820",coffee,33
21.335372,-157.915871,Starbucks:Airport Trade Center - Honolulu HI  (W),"550 Paiea Street<br>Honolulu, HI 96819<br>(808) 833-3519",coffee,34
21.336368,-157.869095,Starbucks:<br />Kamehameha Shopping Center - Honolulu HI  (W),"1620 North School Street<br>Honolulu, HI 96817<br>(808) 832-1430",coffee,35
21.308591,-157.86222,Starbucks:<br />Financial Plaza - Honolulu HI  (W),"130 Merchant Street #111<br>Honolulu, HI 96813<br>(808) 585-8658",coffee,36
21.308877,-157.861157,Starbucks:<br />Bishop - Honolulu HI  (W),"1000 Bishop Street #104<br>Honolulu, HI 96813<br>(808) 599-4833",coffee,37
21.308009,-157.860587,Starbucks:<br />Central Pacific Bank - Honolulu HI  (W),"1025 Alakea Street<br>Honolulu, HI 96813<br>(808) 538-7600",coffee,38
21.295419,-157.85628,Starbucks:<br />Ward Gateway - Honolulu HI  (W),"949 Auahi Street<br>Honolulu, HI 96814<br>(808) 589-2012",coffee,39
21.293718,-157.852955,Starbucks:<br />Ward Entertainment Center - Honolulu HI  (W),"310 Kamakee Street #6<br>Honolulu, HI 96814<br>(808) 593-1945",coffee,40
21.289453,-157.842783,Starbucks:<br />Sears Ala Moana Center - Honolulu HI  (W),"1450 Ala Moana Blvd.<br>Honolulu, HI 96814<br>(808) 943-2416",coffee,41
21.289557,-157.842759,Starbucks:<br />Macys Ala Moana - Honolulu HI  (W),"1450 Ala Moana Blvd.<br>Honolulu, HI 96814<br>(808) 943-2437",coffee,42
21.294452,-157.841919,Starbucks:<br />Keeaumoku - Honolulu HI  (W),"678 Keeamoku Street #106<br>Honolulu, HI 96814<br>(808) 946-7513",coffee,43
21.282716,-157.836199,Starbucks:<br />Hilton Hawaiian Vlge Penguin Plza A - Honolulu HI,"2005 Kalia Rd<br>Honolulu, HI 96815<br>(808) 949-4321",coffee,44
21.278678,-157.83231,Starbucks:<br />Outrigger Reef - Honolulu HI  (W),"2169 Kalia Road #102<br>Honolulu, HI 96815<br>(808) 922-8694",coffee,45
21.277975,-157.82797,Starbucks:<br />Royal Hawaiian Shopping Center - Honolulu HI  (W),"2201 Kalakaua Ave<br>Honolulu, HI 96814<br>(808) 922-4110",coffee,46
21.281037,-157.827508,Starbucks:<br />Duty Free Shopper - Honolulu HI  (W),"330 Royal Hawaiian Avenue<br>Honolulu, HI 96815<br>(808) 926-4863",coffee,47
21.279924,-157.826989,Starbucks:<br />Waikiki Trade Center - Honolulu HI  (W),"2255 Kuhio Avenue<br>Honolulu, HI 96815<br>(808) 921-2190",coffee,48
21.278818,-157.825031,Starbucks:<br />Ohana Waikiki West - Honolulu HI  (W),"2330 Kuhio Avenue<br>Honolulu, HI 96815<br>(808) 922-9570",coffee,49
21.263388,-157.820446,Starbucks:<br />Park Shore Hotel - Honolulu HI  (W),"2856 Kalakaua Avenue<br>Honolulu, HI 96815<br>(808) 923-5726",coffee,50
21.2791,-157.813899,Starbucks:<br />Kapahulu Avenue - Honolulu HI  (W),"625 Kapahulu Avenue<br>Honolulu, HI 96815<br>(808) 734-4116",coffee,51
21.284147,-157.813736,Starbucks:<br />Safeway - Honolulu #2747 - Honolulu HI,"900 Kapahulu Ave<br>Honolulu, HI 96816<br>(808) 524-4554",coffee,52
21.309929,-157.810348,Starbucks:<br />Manoa Valley - Honolulu HI  (W),"2902 East Manoa Road<br>Honolulu, HI 96822<br>(808) 988-9295",coffee,53
21.42647,-157.806903,"Starbucks:<br />Kaneohe - Kaneohe HI  (D, W)","46-023 Kamehameha Highway<br>Kaneohe, HI 96744<br>(808) 234-5425",coffee,54
21.400435,-157.798412,Starbucks:<br />Windward City Shopping Center - Honolulu HI  (W),"45-480 Kaneohe Bay Drive<br>Honolulu, HI 96744<br>(808) 234-6900",coffee,55
21.278571,-157.787564,Starbucks:<br />Kahala Mall - Honolulu HI  (W),"4211 Waialae Avenue<br>Honolulu, HI 96816<br>(808) 737-0283",coffee,56
21.4045,-157.7456,Starbucks:<br />Kaneohe Bay MCCS - Kailua HI,"Mokapu Mall  Bldg 6477<br>Kailua, HI 96734",coffee,57
21.393191,-157.740714,Starbucks:<br />Kailua Village - Kailua HI  (W),"539 Kailua Road<br>Kailua, HI 96734<br>(808) 263-9548",coffee,58
21.378044,-157.729241,Starbucks:<br />Enchanted Lakes - Kailua HI  (W),"1020 Keolu Drive<br>Kailua, HI 96734<br>(808) 263-3061",coffee,59
21.282724,-157.711277,Starbucks:<br />Hawaii Kai Town Center - Honolulu HI  (W),"333 Keahole Street<br>Honolulu, HI 96825<br>(808) 396-3013",coffee,60
21.277398,-157.70462,Starbucks:<br />Koko Marina - Honolulu HI  (W),"7192 Kalanianaole Highway<br>Honolulu, HI 96825<br>(808) 394-5577",coffee,61
20.885655,-156.683003,Starbucks:<br />Lahaina Cannery Mall - Lahaina HI  (W),"1221 Honoapiilani Highway<br>Lahaina, HI 96761<br>(808) 661-0865",coffee,62
20.876391,-156.680765,Starbucks:<br />Lahaina - Lahaina HI  (W),"878 Front Street<br>Lahaina, HI 96761<br>(808) 667-6974",coffee,63
20.891963,-156.477614,Starbucks:<br />Queen Kaahumanu Center - Kahului HI  (W),"275 West Kaahuman Avenue #1200 F5<br>Kahului, HI 96732<br>(808) 871-6290",coffee,64
20.881571,-156.454708,Starbucks:<br />Maui Marketplace - Kahului HI  (W),"270 Dairy Road<br>Kahului, HI 96732<br>(808) 871-7884",coffee,65
20.735205,-156.452823,Starbucks:<br />Kukui Mall - Kihei HI  (W),"1819 South Kihei Road<br>Kihei, HI 96753<br>(808) 891-0903",coffee,66
20.887856,-156.451747,Starbucks:<br />OGG Baggage Claim (Maui) - Kahului HI  (A),"1 KahuluiAirport Road Unit 9<br>Kahului, HI 96732<br>(808) 877-5858",coffee,67
20.75066,-156.451338,Starbucks:<br />Piilani Village Shopping Center - Kihei HI  (W),"247 Piikea Avenue #106<br>Kihei, HI 96753<br>(808) 891-0755",coffee,68
20.752511,-156.448144,Starbucks:<br />Safeway - Kihei #1500 - Kihei HI,"277 Pi'ikea Avenue<br>Kihei, HI 96753<br>(808) 891-9120",coffee,69
20.892805,-156.438779,Starbucks:<br />OGG Kahului Main Concourse - KahuluiAirport HI  (A),"New Terminal Bldg @ Bldg 340<br>KahuluiAirport, HI 96732<br>(808) 877-5858",coffee,70
20.837699,-156.342146,Starbucks:<br />Pukalani Foodland - Pukalani HI  (W),"55 Pukalani Street<br>Pukalani, HI 96768<br>(808) 573-5458",coffee,71
59.6432,-151.534,Starbucks:<br />Safeway-Homer #1832 - Homer AK,"90 Sterling Hwy<br>Homer, AK 99603",coffee,72
60.483737,-151.066613,Starbucks:<br />Safeway-Soldotna #548 - Soldotna AK,"44282 Sterling Hwy S<br>Soldotna, AK 99669<br>(907) 714-5400",coffee,73
60.4895,-151.049,Starbucks:<br />Fred Meyer-Soldotna #17 - Soldotna AK,"43843 Sterling Hwy<br>Soldotna, AK 99669<br>(907) 260-2200",coffee,74
61.176563,-149.97307,Starbucks:<br />ANC Anchorage S Dom  Term  Conc C - Anchorage AK  (A),"5000 W IntlAirport Rd<br>Anchorage, AK 99502",coffee,75
61.1554,-149.9583,Starbucks:<br />ANC Main Terminal Ticketing - Anchorage AK  (A),"HMSHost  500 West InternationalAirport<br>Anchorage, AK 99502",coffee,76
61.136451,-149.95582,Starbucks:<br />Safeway-Anchorage #1812 - Anchorage AK,"4000 W Dimond Blvd<br>Anchorage, AK 99515-1101",coffee,77
61.136322,-149.9195,Starbucks:<br />Fred Meyer - Anchorage (Dimond) #71 - Anchorage AK,"2000 W Dimond Blvd<br>Anchorage, AK 99515-1400<br>(907) 267-6700",coffee,78
61.195285,-149.915447,Starbucks:<br />Carrs-Anchorage #1805 - Anchorage AK,"1650 W Northern Lights Blvd<br>Anchorage, AK 99503<br>(907) 339-0500",coffee,79
61.217853,-149.894236,Starbucks:<br />601 West Street - Anchorage AK  (W),"601 West 5th Avenue<br>Anchorage, AK 99501<br>(907) 277-2477",coffee,80
61.180299,-149.883887,Starbucks:<br />Tudor Rd and C Street - Anchorage AK  (D),"110 W. Tudor Rd<br>Anchorage, AK 99503<br>(907) 561-3141",coffee,81
61.12848,-149.882215,Starbucks:<br />Target Anchorage South T-2372 - Anchorage AK,"150 W 100th Ave Suite A<br>Anchorage, AK 99515<br>(907) 267-7500",coffee,82
61.194346,-149.865019,Starbucks:<br />Fred Meyer - Anchorage #11 - Anchorage AK,"1000 E Northern Lights Blvd<br>Anchorage, AK 99508-4283<br>(907) 264-9600",coffee,83
61.14478,-149.86379,"Starbucks:<br />Old Seward & Diamond - Anchorage AK  (D, W)","1005 E Dimond Blvd<br>Anchorage, AK 99515<br>(907) 344-4160",coffee,84
61.142176,-149.844686,Starbucks:<br />Safeway-Anchorage #2628 - Anchorage AK,"1725 Abbott Rd<br>Anchorage, AK 99507<br>(907) 339-2800",coffee,85
61.137442,-149.83964,Starbucks:<br />Fred Meyer - Anchorage #656 - Anchorage AK,"2300 Abbott Road<br>Anchorage, AK 99507<br>(907) 365-2000",coffee,86
61.181359,-149.83548,Starbucks:<br />Tudor & Lake Otis- Anchorage - Anchorage AK  (D),"2421 East Tudor Road<br>Anchorage, AK 99507<br>(907) 561-1644",coffee,87
61.215507,-149.822907,Starbucks:<br />Safeway - Anchorage #520 - Anchorage AK,"3101 Penland Pkwy.<br>Anchorage, AK 99508<br>(907) 339-5200",coffee,88
61.189723,-149.821917,Starbucks:<br />Nana @ University of Alaska - Anchorage AK,"3211 Providence Drive<br>Anchorage, AK 99508<br>(907) 751-7491",coffee,89
61.208659,-149.77647,Starbucks:<br />Safeway-Anchorage #1809 - Anchorage AK,"5600 Debarr Rd<br>Anchorage, AK 99504<br>(907) 339-0900",coffee,90
61.2272,-149.7534,Starbucks:<br />Elmendorf AFB - Anchorage AK,"Bldg 5800 Westover Avenue<br>Anchorage, AK 99506<br>(907) 753-4420",coffee,91
61.23118,-149.741452,Starbucks:<br />Target Anchorage NE T-2371 - Anchorage AK,"1200 N Muldoon Rd<br>Anchorage, AK 99506",coffee,92
61.196257,-149.735762,Starbucks:<br />Safeway-Anchorage #1817 - Anchorage AK,"7731 E Northern Lights Blvd<br>Anchorage, AK 99504<br>(907) 331-1700",coffee,93
61.2621,-149.6772,Starbucks:<br />Fort Richardson Frontier Theater - Fort Richardson AK,"Frontier Theater  Building 2<br>Fort Richardson, AK 99505<br>(907) 428-1173",coffee,94
61.32447,-149.573017,Starbucks:<br />Safeway-Eagle River #1807 - Eagle River AK,"11409 Business Blvd<br>Eagle River, AK 99577<br>(907) 696-6400",coffee,95
61.32549,-149.57037,Starbucks:<br />Coronado Rd- Eagle River - Eagle River AK  (D),"16707 Coronado Road<br>Eagle River, AK 99577<br>(907) 696-6055",coffee,96
61.342603,-149.557464,Starbucks:<br />Fred Meyer-Eagle River #668 - Eagle River AK,"13401 Old Glenn Hwy<br>Eagle River, AK 99577",coffee,97
61.579432,-149.497284,Starbucks:<br />Target Wasilla T-2339 - Wasilla AK,"1801 E Parks Hwy<br>Wasilla, AK 99654<br>(907) 631-7200",coffee,98
60.1263,-149.436,Starbucks:<br />Safeway-Seward #2728 - Seward AK,"1907 Seward Hwy<br>Seward, AK 99664",coffee,99
61.578129,-149.414183,Starbucks:<br />Fred Meyer - Wasilla #653 - Wasilla AK,"1501 East Parks Highway<br>Wasilla, AK 99654<br>(907) 352-5000",coffee,100
61.600404,-149.118333,Starbucks:<br />Fred Meyer - Palmer #671 - Palmer AK,"650 N Cobb St<br>Palmer, AK 99645<br>(907) 761-4200",coffee,101
64.836724,-147.817063,Starbucks:<br />Fred Meyer-Fairbanks #485 - Fairbanks AK,"3755Airport Way<br>Fairbanks, AK 99709-4610<br>(907) 474-1403",coffee,102
64.836718,-147.810808,Starbucks:<br />Safeway - Fairbanks #2754 - Fairbanks AK,"3627Airport Way (405R)<br>Fairbanks, AK 99701<br>(907) 374-4000",coffee,103
64.851206,-147.70561,Starbucks:<br />Safeway-Fairbanks #3410 - Fairbanks AK,"30 College Rd<br>Fairbanks, AK 99701<br>(907) 374-4100",coffee,104
64.851938,-147.690964,Starbucks:<br />Fred Meyer - Fairbanks #224 - Fairbanks AK,"930 Old Steese Hwy<br>Fairbanks, AK 99701<br>(907) 459-4629",coffee,105
64.827778,-147.679722,Starbucks:<br />Fort Wainwright - Fort Wainwright AK,"Bldg # 3703B<br>Fort Wainwright, AK 99703",coffee,106
58.3595,-134.5532,Starbucks:<br />Fred Meyer-Juneau #158 - Juneau AK,"8181 Old Glacier Hwy<br>Juneau, AK 99801-8035<br>(907) 789-6500",coffee,107
58.359115,-134.548276,Starbucks:<br />Safeway-Juneau #1820 - Juneau AK,"303 Vintage Blvd<br>Juneau, AK 99801<br>(907) 523-2000",coffee,108
55.349452,-131.673818,Starbucks:<br />Carrs-Ketchikan #1818 - Ketchikan AK,"2417 Tongass Ave<br>Ketchikan, AK 99901<br>(907) 228-1900",coffee,109
54.314894,-130.323299,Starbucks:<br />Safeway-Prince Rupert #78 - Prince Rupert BC,"200 2nd Ave W<br>Prince Rupert, BC V8J 1G5",coffee,110
54.516797,-128.591391,Starbucks:<br />Safeway - Terrace #126 - Terrace BC,"4655 Lakelse<br>Terrace, BC V8G 1R3",coffee,111
54.780018,-127.164138,Starbucks:<br />Safeway - Smithers #144 - Smithers BC,"3664 Highway 16<br>Smithers, BC V0J 2N0",coffee,112
50.028998,-125.249423,"Starbucks:<br />Mariner Square  Campbell River - Campbell River BC  (D, W)","1400 Dogwood Street<br>Campbell River, BC V9W 3A6<br>(250) 830-1035",coffee,113
49.982576,-125.223675,Starbucks:<br />Campbell River - Campbell River BC  (W),"1416 Island Highway<br>Campbell River, BC V9W 2E3<br>(250) 286-6335",coffee,114
49.685094,-124.991921,Starbucks:<br />Safeway - Courtneay #69 - Courtneay BC,"1551 Cliffe Avenue<br>Courtneay, BC V9N 2K6",coffee,115
49.684355,-124.990694,Starbucks:<br />Courtenay Crossing - Courtenay BC  (W),"1661 Cliffe Ave<br>Courtenay, BC V9N 2K6<br>(250) 703-0003",coffee,116
49.266226,-124.785118,"Starbucks:<br />Pacific Rim Station-Pt Alberni D/T - Port Alberni BC  (D, W)","101-3555 Johnston Rd<br>Port Alberni, BC V9Y 8K2<br>(250) 723-5242",coffee,117
49.841768,-124.518856,Starbucks:<br />Safeway - Powell River #182 - Powell River BC,"7040 Barnet St<br>Powell River, BC V8A 2A1",coffee,118
49.841796,-124.517781,"Starbucks:<br />Town Ctr Mall-Powell River - Powell River BC  (D, W)","7065 Barnet Street<br>Powell River, BC V8A 1Z9<br>(604) 485-1270",coffee,119
49.318844,-124.300932,"Starbucks:<br />Island Hwy & Mills Rd-ParksvilleDT - Parksville BC  (D, W)","382 E Island Highway<br>Parksville, BC V9P 1K8<br>(250) 248-9720",coffee,120
42.055267,-124.28799,Starbucks:<br />Fred Meyer-Brookings #30 - Brookings OR,"325 5th St<br>Brookings, OR 97415<br>(541) 469-1610",coffee,121
43.406581,-124.235477,Starbucks:<br />Safeway - North Bend #1557 - North Bend OR,"1735 Virginia Ave<br>North Bend, OR 97459<br>(541) 751-7000",coffee,122
43.35795,-124.209983,Starbucks:<br />Safeway #1556 - Coos Bay - Coos Bay OR,"230 East Johnson<br>Coos Bay, OR 97420",coffee,123
41.761639,-124.198193,"Starbucks:<br />Cooper & Hwy 101 - Crescent City - Crescent City CA  (D, W)","450 Hwy 101 N<br>Crescent City, CA 95531<br>(707) 464-2080",coffee,124
40.801463,-124.167448,"Starbucks:<br />5th & E Street - Eureka - Eureka CA  (D, W)","326 5th Street<br>Eureka, CA 95501<br>(707) 445-2685",coffee,125
40.799229,-124.147545,Starbucks:<br />Myrtle & West - Eureka - Eureka CA  (W),"1117 Myrtle Avenue<br>Eureka, CA 95501<br>(707) 445-2672",coffee,126
40.578666,-124.146679,"Starbucks:<br />N. Fortuna & Redwood - Fortuna - Fortuna CA  (D, W)","1095 S. Fortuna Blvd.<br>Fortuna, CA 95540<br>(707) 726-7870",coffee,127
40.805575,-124.144039,Starbucks:<br />Target Eureka T-1421 - Eureka CA,"2525 4th St<br>Eureka, CA 95501<br>(707) 442-0201",coffee,128
43.972821,-124.10443,Starbucks:<br />Safeway - Florence #363 - Florence OR,"700 Hwy 101<br>Florence, OR 97439<br>(541) 902-1900",coffee,129
40.940248,-124.101454,"Starbucks:<br />Central & Heartwood - McKinleyville - McKinleyville CA  (D, W)","1924 Central Ave.<br>Mckinleyville, CA 95519<br>(707) 840-0253",coffee,130
44.635518,-124.05335,"Starbucks:<br />North Coast Hwy & 2nd St-Newport - Newport OR  (D, W)","122 N. Coast Highway<br>Newport, OR 97365<br>(541) 265-8610",coffee,131
44.651984,-124.051649,Starbucks:<br />Fred Meyer-Newport #227 - Newport OR,"150 NE 20th St<br>Newport, OR 97365<br>(541) 265-4581",coffee,132
49.236215,-124.045904,Starbucks:<br />Woodgrove Centre - Nanaimo BC  (W),"6631 Island Highway<br>Nanaimo, BC V9T 4T7<br>(250) 390-3835",coffee,133
49.229852,-124.04365,Starbucks:<br />Metral Station - Nanaimo - Nanaimo BC  (D),"6334 Metral Drive<br>Nanaimo, BC V9T 2L8<br>(250) 390-9861",coffee,134
49.234901,-124.03879,Starbucks:<br />Woodgrove Chapters - Nanaimo BC  (W),"6650 Mary Ellen Drive<br>Nanaimo, BC V9T 4T7<br>(250) 390-9094",coffee,135
44.942606,-124.02109,"Starbucks:<br />Highway 101 30th - Lincoln City - Lincoln City OR  (D, W)","3350 N E HWY 101<br>Lincoln City, OR 97367<br>(541) 994-3365",coffee,136
44.996098,-124.005464,Starbucks:<br />Safeway - Lincoln City #415 - Lincoln City OR,"4101 Logan Rd<br>Lincoln City, OR 97367<br>(541) 994-8667",coffee,137
49.204887,-124.004309,"Starbucks:<br />Country Club Centre - Nanaimo BC  (D, W)","3200 Island Highway<br>Nanaimo, BC V9T 1W1<br>(250) 758-5955",coffee,138
49.18357,-123.955259,"Starbucks:<br />Terminal SC @ Princess Ave-Nanaimo - Nanaimo BC  (D, W)","1150 North Terminal Avenue<br>Nanaimo, BC V9S 5L6<br>(250) 716-7828",coffee,139
49.15517,-123.951929,Starbucks:<br />University Village - Nanaimo - Nanaimo BC  (D),"540 5th Street<br>Nanaimo, BC V9R 1P1<br>(250) 754-6552",coffee,140
45.991003,-123.921507,Starbucks:<br />Safeway-Seaside #1260 - Seaside OR,"401 S Roosevelt<br>Seaside, OR 97138<br>(503) 738-7122",coffee,141
46.145583,-123.918886,Starbucks:<br />Fred Meyer-Warrenton #218 - Warrenton OR,"695 Highway 101<br>Warrenton, OR 97146<br>(503) 861-3000",coffee,142
46.161783,-123.897866,"Starbucks:<br />Young's Bay Plaza- Warrenton - Warrenton OR  (D, W)","171 South Hwy 101<br>Warrenton, OR 97146<br>(503) 861-5633",coffee,143
45.45659,-123.845138,Starbucks:<br />Safeway - Tillamook #2723 - Tillamook OR,"210 Ivy Ave<br>Tillamook, OR 97141<br>(503) 842-4608",coffee,144
45.473456,-123.844269,Starbucks:<br />Fred Meyer-#377 Tillamook - Tillamook OR,"2500 North Main St<br>Tillamook, OR 97141-772",coffee,145
46.971863,-123.818643,Starbucks:<br />Safeway - Aberdeen #1546 - Aberdeen WA,"221 W Heron St<br>Aberdeen, WA 98520<br>(360) 533-1955",coffee,146
46.1919,-123.80808,Starbucks:<br />Safeway-Astoria #2627 - Astoria OR,"3250 Lief Erikson Drive<br>Astoria, OR 97103<br>(503) 338-2960",coffee,147
39.434934,-123.805514,"Starbucks:<br />Main & Walnut Street - Fort Bragg - Fort Bragg CA  (D, W)","576 South Main Street<br>Fort Bragg, CA 95437<br>(707) 964-4256",coffee,148
46.977412,-123.8021,"Starbucks:<br />1202 Wishkah St- Aberdeen - Aberdeen WA  (D, W)","1202 E. Wishkah St.<br>Aberdeen, WA 98520<br>(360) 532-0349",coffee,149
49.472416,-123.745972,"Starbucks:<br />Tsain-Ko Village Sechelt - Sechelt BC  (D, W)","5500 Sunshine Coast Highway<br>Sechelt, BC V0N 3A1<br>(604) 740-8144",coffee,150
48.785955,-123.706956,"Starbucks:<br />Beverly Corners @Trans Can Hwy - Duncan BC  (D, W)","2755 Beverly Street<br>Duncan, BC V9L 6X2<br>(250) 737-1077",coffee,151
48.776769,-123.701064,Starbucks:<br />Duncan Plaza - Duncan BC  (W),"350 Trunk Road<br>Duncan, BC V9L 2P2<br>(250) 746-9394",coffee,152
48.776779,-123.700011,Starbucks:<br />Safeway-Duncan #67 - Duncan BC,"436 Trunk Rd<br>Duncan, BC V9I 2P7",coffee,153
48.718356,-123.618699,Starbucks:<br />Departure Bay Ferry Terminal - Nanaimo BC,"680 TransCanada Highway<br>Nanaimo, BC V9S 5R1<br>(250) 754-1594",coffee,154
48.547881,-123.565657,Starbucks:<br />Safeway-Ladysmith #147 - Ladysmith BC,"370 Trans Canada Hwy<br>Ladysmith, BC V0R 2E0",coffee,155
49.406739,-123.51945,Starbucks:<br />Sunnycrest Mall - Gibsons BC  (W),"900 Gibson Way  RR #7<br>Gibsons, BC V0N 1V7<br>(604) 886-8415",coffee,156
48.441358,-123.51103,Starbucks:<br />Canwest Mall - Victoria BC  (W),"2945 Jacklin Road<br>Victoria, BC V9B 5E3<br>(250) 474-3450",coffee,157
48.441623,-123.510873,"Starbucks:<br />Hull's Corner-Jacklin & Langford - Victoria BC  (D, W)","2972 Jacklin Road<br>Victoria, BC V9B 0A3<br>(250) 478-7878",coffee,158
48.448978,-123.499349,"Starbucks:<br />Langford Centre - Victoria BC  (D, W)","782 Goldstream Avenue<br>Victoria, BC V9B 2X3<br>(250) 474-3937",coffee,159
48.460119,-123.499181,Starbucks:<br />Millstream & McCallum - Langford BC  (W),"719 McCallum Road<br>Langford, BC V9B 6A2<br>(250) 478-1749",coffee,160
43.299737,-123.467466,Starbucks:<br />Fred Meyer-Roseburg #281 - Roseburg OR,"929 NW Garden Valley Rd<br>Roseburg, OR 97470<br>(541) 672-8581",coffee,161
48.1163,-123.435,Starbucks:<br />Safeway-Port Angeles #1492 - Port Angeles WA,"110 E 3rd St<br>Port Angeles, WA 98362<br>(360) 457-0788",coffee,162
48.648886,-123.402209,Starbucks:<br />Safeway - Sidney #66 - Sidney BC,"2345 Beacon Avenue<br>Sidney, BC V8L 1W9",coffee,163
48.449075,-123.398976,Starbucks:<br />Gorge Shopping Centre - Saanich BC,"2961 Tillicum Road<br>Saanich, BC V9A 2A6<br>(250) 381-4787",coffee,164
48.64892,-123.397059,Starbucks:<br />Sidney - Sidney BC  (W),"2471 Beacon Avenue<br>Sidney, BC V8L 1X7<br>(250) 655-0949",coffee,165
48.452666,-123.395006,Starbucks:<br />Safeway - Victoria #195 - Saanich BC,"108 3170 Tillicum Rd<br>Saanich, BC V9A 6T2",coffee,166
48.452666,-123.395006,Starbucks:<br />Tillicum - Victoria BC  (W),"3170 Tillicum Road<br>Victoria, BC V9A 7C5<br>(250) 414-0442",coffee,167
48.498776,-123.384538,Starbucks:<br />Broadmead - Victoria BC  (W),"550-777 Royal Oak Dr<br>Victoria, BC V8X 4V1<br>(250) 744-4225",coffee,168
48.43287,-123.382128,Starbucks:<br />Westside Village - Victoria BC  (W),"140-176 Wilson Street<br>Victoria, BC V9A 7N6<br>(250) 360-1140",coffee,169
48.1057,-123.38,Starbucks:<br />Safeway - Port Angeles #1922 - Port Angeles WA,"2709 E. HIGHWAY 101<br>Port Angeles, WA 98362",coffee,170
48.415801,-123.375521,Starbucks:<br />James Bay Square - Simcoe St - Victoria BC  (W),"425 Simcoe Street<br>Victoria, BC V8V 4T3<br>(250) 361-4884",coffee,171
48.447053,-123.372074,"Starbucks:<br />3180 Douglas St - Victoria - Victoria BC  (D, W)","3180 Douglas St<br>Victoria, BC V8Z 3K5<br>(250) 360-0339",coffee,172
48.445828,-123.371099,Starbucks:<br />Mayfair Shopping Centre - Victoria BC  (W),"3147 Douglas Street<br>Victoria, BC V8Z 6E3<br>(250) 383-6395",coffee,173
43.230817,-123.370519,Starbucks:<br />Garden Valley & Goetz - Roseburg - Roseburg OR  (D),"1122 NW Garden Valley Blvd<br>Roseburg, OR 97471<br>(541) 672-3729",coffee,174
48.426105,-123.367609,Starbucks:<br />Goverment St & View St - Victoria BC  (W),"1234 Government<br>Victoria, BC V8W 1Y3<br>(250) 920-7203",coffee,175
48.426586,-123.367478,Starbucks:<br />Government & Yates - Victoria BC  (W),"1301 Government St.<br>Victoria, BC V8W 1Y9<br>(250) 383-4448",coffee,176
48.429333,-123.367049,Starbucks:<br />Government & Fisgard - Victoria BC,"1 - 1689 Government Street<br>Victoria, BC V8W 0A1<br>(250) 382-7662",coffee,177
48.425056,-123.365227,Starbucks:<br />Victoria Bay Centre - Victoria BC  (W),"1150 Douglas Street<br>Victoria, BC V8W 3M9<br>(250) 381-1150",coffee,178
48.425551,-123.365076,Starbucks:<br />Chapters - Victoria - Victoria BC,"1212 Douglas St.<br>Victoria, BC V8W 2E5<br>(250) 380-9009",coffee,179
48.469785,-123.364371,Starbucks:<br />Saanich Center - Victoria BC  (W),"3995 Quadra St<br>Victoria, BC V8X 1J8<br>(250) 727-6394",coffee,180
43.239311,-123.36329,Starbucks:<br />Albertsons-Roseburg #515 - Roseburg OR,"3013 NW Stewart Pkwy<br>Roseburg, OR 97470<br>(541) 672-8294",coffee,181
48.424304,-123.362461,Starbucks:<br />Fort Street - Victoria BC  (W),"801 Fort Street<br>Victoria, BC V8W 1H6<br>(250) 383-6208",coffee,182
48.425714,-123.359828,Starbucks:<br />Quadra & Yates - Victoria BC  (W),"865 Yates Street<br>Victoria, BC V8W 2K7<br>(250) 360-2246",coffee,183
48.415388,-123.356157,Starbucks:<br />Cook Street Village - Victoria BC  (W),"320 Cook Street<br>Victoria, BC V8V 3X6<br>(250) 380-7606",coffee,184
39.403424,-123.350245,Starbucks:<br />Safeway - Willits #965 - Willits CA,"845 Main Street<br>Willits, CA 95490<br>(707) 459-5862",coffee,185
43.229219,-123.349507,Starbucks:<br />Safeway-Roseburg #1666 - Roseburg OR,"1539 NE Stephens<br>Roseburg, OR 97470<br>(541) 957-2540",coffee,186
48.412219,-123.337239,Starbucks:<br />Fairfield Plaza - Victoria BC  (W),"1594 Fairfield Road<br>Victoria, BC V8S 1G1<br>(250) 370-6099",coffee,187
48.445341,-123.334367,Starbucks:<br />Hillside - Victoria BC  (W),"1644 Hillside Ave.<br>Victoria, BC V8T 2C5<br>(250) 370-0776",coffee,188
48.458534,-123.332949,Starbucks:<br />Shelbourne Plaza - Victoria BC  (W),"3605 Shelbourne Street<br>Victoria, BC V8P 4H1<br>(250) 472-0513",coffee,189
48.476279,-123.332905,Starbucks:<br />Torquay Village - Victoria BC  (W),"4077 Shelbourne Street<br>Victoria, BC V8N 5Y1<br>(250) 477-3134",coffee,190
48.46891,-123.33275,Starbucks:<br />Safeway-Victoria #185 - Victoria BC,"3958 Shelbourne St<br>Victoria, BC V8N 3E2<br>(205) 477-2433",coffee,191
48.468673,-123.330851,Starbucks:<br />McKenzie & Teakwood - Tuscany - Victoria BC  (W),"104-1646 McKenzie Avenue<br>Victoria, BC V8N 0A3<br>(250) 472-3235",coffee,192
48.431755,-123.323902,Starbucks:<br />Fort & Foul Bay - Victoria BC  (W),"1959 Fort St.<br>Victoria, BC V8R 1K4<br>(250) 370-9071",coffee,193
48.431282,-123.322485,Starbucks:<br />Safeway-Victoria #80 - Victoria BC,"1950 Foul Bay<br>Victoria, BC V8R 5A7",coffee,194
48.426525,-123.316709,Starbucks:<br />Oak Bay - Victoria BC  (W),"2182 Oak Bay Avenue<br>Victoria, BC V8R 1G3<br>(250) 598-8666",coffee,195
44.929338,-123.312659,Starbucks:<br />Safeway - Dallas -#4404 - Dallas OR,"138 W Ellendale Ave<br>Dallas, OR 97338<br>(503) 831-6000",coffee,196
44.551002,-123.311508,Starbucks:<br />Safeway - Corvallis #1765 - Corvallis OR,"5270 SW Philomath Blvd<br>Corvallis, OR 97333<br>(541) 738-2100",coffee,197
44.929762,-123.30958,"Starbucks:<br />244 Ellendale Ave- Dallas  OR - Dallas OR  (D, W)","244 E Ellendale Ave<br>Dallas, OR 97338<br>(503) 623-5231",coffee,198
48.461574,-123.296354,Starbucks:<br />Cadboro Bay - Victoria BC  (W),"3849 Cadboro Bay Road<br>Victoria, BC V8N 4G3<br>(250) 382-8119",coffee,199
44.589999,-123.276011,Starbucks:<br />Timberhill - Corvallis OR  (W),"2305 NW Kings Blvd<br>Corvallis, OR 97330<br>(541) 758-4069",coffee,200
44.575374,-123.274215,Starbucks:<br />Fred Meyer-Corvallis #70 - Corvallis OR,"777 Kings Blvd<br>Corvallis, OR 97330-5620<br>(541) 754-5559",coffee,201
49.374458,-123.274065,Starbucks:<br />Horseshoe Bay - West Vancouver BC,"3-6390 Bay Street<br>West Vancouver, BC V7W 2G9<br>(604) 913-3477",coffee,202
44.563974,-123.262683,Starbucks:<br />Corvallis - Corvallis OR  (W),"425 Southwest Madison Avenue<br>Corvallis, OR 97333<br>(541) 753-5318",coffee,203
44.583944,-123.257582,Starbucks:<br />9th & Garfield - Corvallis - Corvallis OR  (W),"1705 NW 9th Street<br>Corvallis, OR 97330<br>(541) 738-1172",coffee,204
49.35048,-123.252983,Starbucks:<br />Caulfield Village Relocation - West Vancouver BC  (W),"5339 Headland Drive<br>West Vancouver, BC V7W 3C7<br>(604) 922-4955",coffee,205
49.350692,-123.252373,Starbucks:<br />Safeway - West Vancouver #38 - West Vancouver BC,"5385 Headland Dr<br>West Vancouver, BC V7W 3E7",coffee,206
44.587339,-123.251047,Starbucks:<br />Safeway-Corvallis #1690 - Corvallis OR,"590 NE Circle Blvd<br>Corvallis, OR 97330<br>(541) 753-2966",coffee,207
49.267679,-123.250465,Starbucks:<br />U of BC/Vancouve-Pacific Spirit Pl. - Vancouver BC,"6138 Student Union Blvd<br>Vancouver, BC V6T 1Z4<br>(604) 822-3461",coffee,208
49.262106,-123.250267,Starbucks:<br />UBC - Fred Kaiser Bldg - Vancouver BC,"2332 Main Mall<br>Vancouver, BC V6T 1Z4<br>(604) 827-5779",coffee,209
49.261524,-123.246432,Starbucks:<br />UBC -Tech. Facility 3 - Vancouver BC  (W),"6190 Agronomy Road  UBC<br>Vancouver, BC V6T 1L9<br>(604) 221-6434",coffee,210
49.265755,-123.24268,Starbucks:<br />University Marketplace - Vancouver BC  (W),"5763 Dalhousie Road<br>Vancouver, BC V6T 2H9<br>(604) 221-0200",coffee,211
45.20308,-123.22731,"Starbucks:<br />McMinnville Market Center - McMinnville OR  (D, W)","829 SW Keck Drive<br>McMinnville, OR 97128<br>(503) 472-8640",coffee,212
49.263859,-123.211558,Starbucks:<br />West 10th - Vancouver BC  (W),"4580 West 10th Ave.<br>Vancouver, BC V6R 2J2<br>(604) 222-1456",coffee,213
44.229062,-123.206722,Starbucks:<br />Safeway - Junction City #386 - Junction City OR,"1755 Ivy Street<br>Junction City, OR 97448<br>(541) 998-4520",coffee,214
39.143997,-123.205699,Starbucks:<br />Safeway - Ukiah #1583 - Ukiah CA,"653 S State St<br>Ukiah, CA 94582<br>(707) 467-2700",coffee,215
39.132169,-123.199207,"Starbucks:Airport Park & Commerce - Ukiah - Ukiah CA  (D, W)","1212Airport Park Blvd.<br>Ukiah, CA 95482<br>(707) 467-9637",coffee,216
39.151936,-123.19531,"Starbucks:<br />E. Perkins & Hwy 101 - Ukiah - Ukiah CA  (D, W)","704 E. Perkins Street<br>Ukiah, CA 94582<br>(707) 463-2615",coffee,217
49.246482,-123.18528,Starbucks:<br />Dunbar - Vancouver BC  (W),"4467 Dunbar Street<br>Vancouver, BC V6S 2G4<br>(604) 222-8069",coffee,218
49.256485,-123.185086,Starbucks:<br />Dunbar St & 18th Ave - Vancouver BC  (W),"3398 Dunbar Street<br>Vancouver, BC V6S 2C1<br>(604) 731-5065",coffee,219
49.169966,-123.182861,Starbucks:<br />No.1 & Westminster /TerraNova - Richmond BC  (W),"3677 Westminster Highway<br>Richmond, BC V6X 2C7<br>(604) 207-1177",coffee,220
49.123871,-123.18109,Starbucks:<br />Imperial Landing-No.1 & Bayview - Richmond BC  (W),"4010 Bayview Street<br>Richmond, BC V7E 6T5<br>(604) 204-0288",coffee,221
49.33429,-123.179932,Starbucks:<br />Dundarave Village Mews - West Vancouver BC  (W),"2416 Marine Drive<br>West Vancouver, BC V7V 1L1<br>(604) 913-2171",coffee,222
49.194755,-123.178774,Starbucks:<br />YVR Concourse A Gate A2 - Richmond BC  (A),"3211 Grant McConachie Way<br>Richmond, BC V7B 1X8",coffee,223
49.194755,-123.178774,Starbucks:<br />YVR Vancouver Flagship  Level 3 - Richmond BC  (A),"3211 Grant McConnachie Way<br>Richmond, BC V7B 1X7<br>(604) 231-3731",coffee,224
49.194755,-123.178774,Starbucks:<br />YVR Vancouver Main/DTB - Richmond BC  (A),"3211 Grant McConnachie Way<br>Richmond, BC V7B 1X7<br>(604) 231-3731",coffee,225
49.194755,-123.178774,Starbucks:<br />YVR Vancouver Pier C - Richmond BC  (A),"3211 Grant McConnachie Way<br>Richmond, BC V7B 1X7<br>(604) 231-3731",coffee,226
49.194755,-123.178774,Starbucks:<br />YVR Vancouver US Departures - Richmond BC  (A),"3211 Grant McConnachie Way<br>Richmond, BC V7B 1X7<br>(604) 231-3731",coffee,227
49.194755,-123.178774,Starbucks:<br />YVR West Chevron - Richmond BC  (A),"3211 Grant McConachie Way<br>Richmond, BC V7B 1X8",coffee,228
44.070013,-123.178593,Starbucks:<br />Albertsons-Royal #513 - Eugene OR,"4740 Royal Ave<br>Eugene, OR 97402<br>(541) 688-6497",coffee,229
45.22856,-123.17327,Starbucks:<br />Safeway-McMinnville #1601 - McMinnville OR,"2490 N Hwy 99<br>McMinnville, OR 97225<br>(503) 435-3120",coffee,230
49.161842,-123.171951,Starbucks:<br />Safeway-Richmond #191 - Richmond BC,"8671 # Road<br>Richmond, BC V7C 1V2",coffee,231
49.268414,-123.171744,Starbucks:<br />4th & Bayswater - Vancouver BC  (W),"2948 West 4th Avenue<br>Vancouver, BC V6K 1R2<br>(604) 732-6171",coffee,232
49.264094,-123.170179,Starbucks:<br />West Broadway - Vancouver BC  (W),"2902 West Broadway<br>Vancouver, BC V6K 2G8<br>(604) 736-7876",coffee,233
49.257828,-123.16834,Starbucks:<br />16th & MacDonald St - Vancouver BC  (W),"3190 MacDonald Street<br>Vancouver, BC V6K 4W7<br>(604) 733-4601",coffee,234
49.264176,-123.167065,Starbucks:<br />Safeway-Vancouver #2 - Vancouver BC,"2733 W. Broadway<br>Vancouver, BC V6K 2G5<br>(604) 732-7318",coffee,235
49.264167,-123.166464,Starbucks:<br />Stephens & West Broadway - Vancouver BC  (W),"2699 West Broadway<br>Vancouver, BC V6K 2G2<br>(604) 736-6126",coffee,236
49.234649,-123.160627,Starbucks:<br />41st Ave & Balsam St - Vancouver BC  (W),"2348 West 41st Ave<br>Vancouver, BC V6M 2A4<br>(604) 267-7703",coffee,237
49.32861,-123.160618,Starbucks:<br />Ambleside - West Vancouver BC  (W),"1718 Marine Drive<br>West Vancouver, BC V7V 1J3<br>(604) 925-9766",coffee,238
49.154633,-123.158907,Starbucks:<br />Blundell - Richmond BC  (W),"8100 No. 2 Road<br>Richmond, BC V7C 3M2<br>(604) 241-7842",coffee,239
49.268211,-123.157853,Starbucks:<br />Safeway-Vancouver #115 - Vancouver BC,"2315 W 4th Ave<br>Vancouver, BC V6K 1P2",coffee,240
49.234631,-123.157584,Starbucks:<br />Kerrisdale - Vancouver BC  (W),"2193 West 41st Avenue<br>Vancouver, BC V5P 1L3<br>(604) 264-0954",coffee,241
49.268161,-123.156818,Starbucks:<br />West Fourth (Original Store) - Vancouver BC  (W),"2270 West 4th Street<br>Vancouver, BC V6K 1N8<br>(604) 737-0477",coffee,242
49.155579,-123.156564,Starbucks:<br />Safeway - Richmond #138 - Richmond BC,"6140 Blundell Road<br>Richmond, BC V7C 1H6",coffee,243
49.272575,-123.15496,Starbucks:<br />Kitsilano Beach - Vancouver BC  (W),"1500 Yew Street<br>Vancouver, BC V6K 3E4<br>(604) 731-2059",coffee,244
49.244211,-123.153398,Starbucks:<br />Arbutus & Valley - Vancouver BC  (W),"4635 Arbutus Street<br>Vancouver, BC V6J 4A3<br>(604) 261-5447",coffee,245
49.248113,-123.153279,Starbucks:<br />Safeway - Vancouver #127 - Vancouver BC,"4255 Arbutus St<br>Vancouver, BC V6J 4R1<br>(604) 731-5331",coffee,246
49.272486,-123.14773,Starbucks:<br />Cornwall & Cypress - Vancouver BC  (W),"1895 Cornwall Ave<br>Vancouver, BC V6J 1C6<br>(604) 733-6211",coffee,247
49.170112,-123.147587,Starbucks:<br />Richmond Hospital/Lobby - Richmond BC,"7000 Westminster Hwy<br>Richmond, BC V6X 1A2<br>(604) 244-5540",coffee,248
49.703292,-123.145775,Starbucks:<br />Squamish - Squamish BC  (W),"1200 Hunter Place<br>Squamish, BC V0N 3G0<br>(604) 815-4334",coffee,249
49.269302,-123.145668,Starbucks:<br />1855 Burrard Street - Vancouver BC  (W),"1855 Burrard Street<br>Vancouver, BC V6J 3G9<br>(604) 733-4205",coffee,250
49.263723,-123.144715,Starbucks:<br />W.Broadway & Pine - Vancouver BC  (W),"1758 West Broadway<br>Vancouver, BC V6J 1Y1<br>(604) 730-1218",coffee,251
44.048177,-123.144041,Starbucks:<br />Fred Meyer-Eugene #417 - Eugene OR,"3333 W 11th Ave<br>Eugene, OR 97402<br>(541) 484-4223",coffee,252
49.287228,-123.141729,Starbucks:<br />English Bay - Davie St & Denman St - Vancouver BC  (W),"1795 Davie Street<br>Vancouver, BC V6G 2M9<br>(604) 899-4322",coffee,253
49.213118,-123.140347,Starbucks:<br />Marpole - Vancouver BC  (W),"8002 Granville Street<br>Vancouver, BC V6P 4Z4<br>(604) 266-9222",coffee,254
49.170166,-123.140261,Starbucks:<br />Richmond Inn Hotel & Convention Cen - Richmond BC,"Westminster Highway & Minoru Blvd<br>Richmond, BC V6X 1A3",coffee,255
49.28569,-123.139361,Starbucks:<br />Davie Street II - Vancouver BC,"1645 Davie  Street<br>Vancouver, BC V6G 1W1<br>(604) 687-2499",coffee,256
49.285649,-123.139298,Starbucks:<br />Safeway - Vancouver #90 - Vancouver BC,"1641 Davie Street<br>Vancouver, BC V6G 1W1",coffee,257
49.263541,-123.13859,Starbucks:<br />Broadway & Granville/Chptrs - Vancouver BC  (W),"2505 Granville Street<br>Vancouver, BC V6H 3G7<br>(604) 731-5743",coffee,258
49.261794,-123.13855,Starbucks:<br />Granville - Vancouver BC  (W),"2690 Granville St<br>Vancouver, BC V6H 3H2<br>(604) 736-8666",coffee,259
49.265434,-123.138472,Starbucks:<br />Portico - Granville St & 7th Ave - Vancouver BC  (W),"2288 Granville Street<br>Vancouver, BC V6H 4H7<br>(604) 732-8961",coffee,260
49.139797,-123.138188,Starbucks:<br />Richlea Square - Richmond BC  (W),"10151 No. 3 Road<br>Richmond, BC V7A 4R6<br>(604) 241-7826",coffee,261
49.269519,-123.138185,Starbucks:<br />Granville & 2nd - Vancouver BC  (W),"1500 West 2nd Avenue<br>Vancouver, BC V6J 1H2<br>(604) 736-5477",coffee,262
49.32673,-123.137788,Starbucks:<br />Park Royal Indigo - West Vancouver BC  (W),"901 Park Royal South<br>West Vancouver, BC V7T 2W4<br>(604) 913-1043",coffee,263
49.32642,-123.137761,Starbucks:<br />Park Royal Shopping Centre - West Vancouver BC  (W),"2002 Park Royal South<br>West Vancouver, BC V7T 2W8<br>(604) 922-6668",coffee,264
49.165833,-123.136653,Starbucks:<br />Richmond Centre - Richmond BC,"6551 No 3 Road<br>Richmond, BC V6Y 2B6<br>(604) 233-0511",coffee,265
49.291595,-123.135328,Starbucks:<br />Times Square - Robson & Denman - Vancouver BC,"785 Denman Street<br>Vancouver, BC V6G 2L6<br>(604) 684-7225",coffee,266
49.291136,-123.134963,Starbucks:<br />Safeway - Vancouver #36 - Vancouver BC,"1766 Robson Street<br>Vancouver, BC V6G 1E2",coffee,267
49.172011,-123.134463,Starbucks:<br />Richmond - Richmond BC  (W),"8111 Ackroyd Road<br>Richmond, BC V6C 3J9<br>(604) 279-9676",coffee,268
49.290488,-123.133941,Starbucks:<br />Lower Robson - Vancouver BC  (W),"1702 Robson Street<br>Vancouver, BC V6G 1C9<br>(604) 685-5517",coffee,269
49.172006,-123.13386,Starbucks:<br />Richport Centre/Chapters - Richmond BC,"8171 Ackroyd Road<br>Richmond, BC V6X 3J9<br>(604) 231-1884",coffee,270
49.736169,-123.132912,Starbucks:<br />Garibaldi Village - Squamish - Squamish BC  (W),"40147 Glenalder Place<br>Squamish, BC V8B 0G2<br>(604) 898-9510",coffee,271
49.281242,-123.132532,Starbucks:<br />1160 Davie St - Vancouver BC  (W),"1160 Davie Street<br>Vancouver, BC V6E 1N1<br>(604) 408-5101",coffee,272
49.280353,-123.131139,Starbucks:<br />Davie Street - Vancouver BC  (W),"1097 Davie Street<br>Vancouver, BC V6E 1M3<br>(604) 687-4070",coffee,273
49.210945,-123.130204,Starbucks:<br />Oak Street & 67th Avenue - Vancouver BC,"8273 Oak Street<br>Vancouver, BC V6P 4A8<br>(604) 263-5253",coffee,274
49.291447,-123.129316,Starbucks:<br />Westin Bayshore - Vancouver BC,"1601 Bayshore Dr<br>Vancouver, BC V6G 2V4",coffee,275
48.078311,-123.129279,"Starbucks:<br />Sequim Village Market Place - Sequim WA  (D, W)","1095 W. Washington Street<br>Sequim, WA 98382<br>(360) 681-2449",coffee,276
49.287019,-123.128536,Starbucks:<br />1301 Robson Street - Vancouver BC  (W),"1301 Robson Street<br>Vancouver, BC V6E 4A2<br>(604) 801-5820",coffee,277
49.280185,-123.127487,Starbucks:<br />Shearaton Wall Centre-Street Level - Vancouver BC,"1088 Burrard St<br>Vancouver, BC V6Z 2R9<br>(604) 331-1000",coffee,278
49.191081,-123.127456,"Starbucks:<br />Bridgeport & No 3 Road - Richmond BC  (D, W)","8525 Sea Island Way<br>Richmond, BC V6X 0A8<br>(604) 247-0717",coffee,279
49.251529,-123.127433,Starbucks:<br />Oak Street - Vancouver BC  (W),"3820 Oak Street<br>Vancouver, BC V6H 2M5<br>(604) 731-6578",coffee,280
49.27891,-123.125562,Starbucks:<br />1095 Howe - Vancouver BC  (W),"1095 Howe Street<br>Vancouver, BC V6Z 1P6<br>(604) 685-7083",coffee,281
49.260726,-123.125458,Starbucks:<br />Oak St & 12th Ave - Vancouver BC,"2787 Laurel Street<br>Vancouver, BC V5Z 3J5<br>(604) 709-9799",coffee,282
49.243639,-123.125389,Starbucks:<br />BC Childrens Hospital - Vancouver BC  (W),"4500 Oak Street<br>Vancouver, BC V6H 3N1<br>(604) 708-2177",coffee,283
49.276543,-123.125225,Starbucks:<br />Brava - Davie & Seymour - Vancouver BC  (W),"605 Davie Street<br>Vancouver, BC V6B 2G6<br>(604) 622-5558",coffee,284
49.284604,-123.124883,Starbucks:<br />Robson - Vancouver BC  (W),"100-1100 Robson St<br>Vancouver, BC V6E 1B2<br>(604) 685-7991",coffee,285
49.281947,-123.124829,Starbucks:<br />Burrard & Smithe - Vancouver BC  (W),"930 Burrard Street<br>Vancouver, BC V6Z 3G5<br>(604) 683-4464",coffee,286
49.284595,-123.124814,Starbucks:<br />Robson II - Vancouver BC  (W),"1099 Robson Street<br>Vancouver, BC V6E 1B2<br>(604) 685-1099",coffee,287
49.287943,-123.124025,Starbucks:<br />The Melville - Melville & Bute - Vancouver BC  (W),"580 Bute St<br>Vancouver, BC V6E 3M1<br>(604) 682-4635",coffee,288
49.265904,-123.122202,Starbucks:<br />818 West 6th Ave - False Creek - Vancouver BC  (W),"818 West 6th Ave<br>Vancouver, BC V5Z 1A6<br>(604) 875-6503",coffee,289
49.274586,-123.122069,Starbucks:<br />Yaletown - Vancouver BC  (W),"1195 Mainland St<br>Vancouver, BC V6B 2S2<br>(604) 662-4030",coffee,290
49.284993,-123.121965,Starbucks:<br />Royal Centre - Vancouver BC  (W),"1055 West Georgia Street<br>Vancouver, BC V6C 3P2<br>(604) 685-5882",coffee,291
49.282534,-123.121951,Starbucks:<br />Hornby - Vancouver BC  (W),"811 Hornby St<br>Vancouver, BC V6Z 2E6<br>(604) 685-3695",coffee,292
49.278789,-123.121691,Starbucks:<br />Metropolitan Towers - Vancouver BC  (W),"980 Seymour Street<br>Vancouver, BC V6B 3L9<br>(604) 608-8743",coffee,293
49.284723,-123.121609,Starbucks:<br />Burrard Building - Vancouver BC  (W),"1030 W. Georgia Street<br>Vancouver, BC V6E 2Y3<br>(604) 632-3828",coffee,294
49.280305,-123.121396,Starbucks:<br />900 Granville - Vancouver BC  (W),"900 Granville Street<br>Vancouver, BC V6Z 1L2<br>(604) 608-1903",coffee,295
49.281938,-123.12074,Starbucks:<br />Robson & Howe/Chapters - Vancouver BC  (W),"788 Robson Street<br>Vancouver, BC V6Z 1A1<br>(604) 684-8832",coffee,296
49.285953,-123.120287,Starbucks:<br /> Bentall 4 - Burrard & Dunsmuir - Vancouver BC,"1055 Dunsmuir Street<br>Vancouver, BC V7X 1L3<br>(604) 689-3452",coffee,297
49.273345,-123.120217,Starbucks:<br />Pacific Blvd & Davie/Concord - Vancouver BC  (W),"125 Davie Street<br>Vancouver, BC V6Z 2Y1<br>(604) 609-7717",coffee,298
49.263271,-123.119491,Starbucks:<br />Broadway & Heather - Vancouver BC  (W),"682 West Broadway<br>Vancouver, BC V5Z 1G1<br>(604) 708-0030",coffee,299
49.233699,-123.119338,Starbucks:<br />Oakridge Centre - Vancouver BC,"650 West 41st Avenue<br>Vancouver, BC V5Z 2M8<br>(604) 261-4698",coffee,300
49.233699,-123.119338,Starbucks:<br />Safeway - Vancouver #110 - Vancouver BC,"650 W 41st Ave<br>Vancouver, BC V5Z 2M9<br>(604) 263-2575",coffee,301
49.276893,-123.118633,Starbucks:<br />Mainland & Nelson Yaletown Park - Vancouver BC  (W),"977 Mainland Street<br>Vancouver, BC V6B 1T2<br>(604) 609-7075",coffee,302
49.282241,-123.118482,Starbucks:<br />Granville & Georgia - Vancouver BC  (W),"720 Granville St<br>Vancouver, BC V6Z 1E4<br>(604) 633-9801",coffee,303
49.284813,-123.118185,Starbucks:<br />891 Dunsmuir - Vancouver BC,"885 Dunsmuir Street<br>Vancouver, BC V6C 1N5<br>(604) 688-9098",coffee,304
49.28247,-123.118157,Starbucks:<br />Eaton #1115- Pacific Centre - Vancouver BC,"701 Granville St.<br>Vancouver, BC V7B 4E5",coffee,305
49.280094,-123.117874,Starbucks:<br />Robson & Richards - Vancouver BC  (W),"498 Robson Street<br>Vancouver, BC V6B 2B5<br>(604) 642-5300",coffee,306
49.288096,-123.117675,Starbucks:<br />Shaw Tower - Vancouver BC,"150-1067 West Cordova<br>Vancouver, BC V6C 1C7<br>(604) 605-3144",coffee,307
48.079732,-123.117002,Starbucks:<br />Safeway-Sequim #1448 - Sequim WA,"680F W Washington<br>Sequim, WA 98382<br>(360) 681-2905",coffee,308
49.279458,-123.116887,Starbucks:<br />Robson & Homer - Vancouver BC  (W),"398 Robson Street<br>Vancouver, BC V6B 6M3<br>(604) 687-1187",coffee,309
44.040495,-123.116583,Starbucks:<br />Albertsons-18th Chambers #507 - Eugene OR,"1675 W. 18th & Chambers<br>Eugene, OR 97402<br>(541) 485-7027",coffee,310
49.283497,-123.116565,Starbucks:<br />The Hudson - Vancouver BC,"610 Granville Street<br>Vancouver, BC V6C 3T3",coffee,311
49.260434,-123.11646,Starbucks:<br />City Square Mall - Vancouver BC  (W),"555 W 12th Ave<br>Vancouver, BC V5Z 3X7<br>(604) 872-1201",coffee,312
49.235339,-123.115981,Starbucks:<br />Cambie St & 39th Ave - Vancouver BC  (W),"5504 Cambie Street<br>Vancouver, BC V5Z 3A2<br>(604) 321-1042",coffee,313
49.288095,-123.115477,Starbucks:<br />Waterfront Centre - Vancouver BC,"200 Burrard St<br>Vancouver, BC V6C 3L5<br>(604) 682-0721",coffee,314
49.28298,-123.115423,Starbucks:<br />Seymour and Dunsmuir - Vancouver BC  (W),"600 Dunsmuir Street<br>Vancouver, BC V6B 1Y6<br>(604) 608-1845",coffee,315
49.254048,-123.115183,Starbucks:<br />Cambie Street - Vancouver BC  (W),"3492 Cambie Street<br>Vancouver, BC V5Z 2W8<br>(604) 872-3911",coffee,316
49.263192,-123.114951,Starbucks:<br />Broadway & Cambie - Vancouver BC  (W),"500 West Broadway<br>Vancouver, BC V5Z 1E9<br>(604) 872-5666",coffee,317
49.27696,-123.1149,Starbucks:<br />Pivotal Building - Vancouver BC  (W),"858 Beatty Street<br>Vancouver, BC V6B 1C2<br>(604) 685-2310",coffee,318
49.284649,-123.11487,Starbucks:<br />Pender Reloc - Vancouver BC  (W),"700 W Pender St<br>Vancouver, BC V6C 1G8<br>(604) 685-7373",coffee,319
49.264287,-123.114727,Starbucks:<br />The Rise-Cambie & W 8th - Vancouver BC,"2378 Cambie Street<br>Vancouver, BC V5Z 2T8<br>(604) 873-4199",coffee,320
44.644066,-123.11343,"Starbucks:<br />N Albany & Hickory- Albany - Albany OR  (D, W)","633 Hickory St NW<br>Albany, OR 97321<br>(541) 928-6399",coffee,321
49.284463,-123.113194,Starbucks:<br />433 Seymour Street - Vancouver BC  (W),"433 Seymour St<br>Vancouver, BC V6B 3H5<br>(604) 682-2817",coffee,322
49.267174,-123.112741,Starbucks:<br />Montreux-2nd & Yukon - Vancouver BC  (W),"2035 Yukon St<br>Vancouver, BC V5Y 3W3<br>(604) 708-1507",coffee,323
49.288285,-123.112611,Starbucks:<br />Pan Pacific Hotel - Vancouver BC  (W),"999 Canada Place<br>Vancouver, BC V6C 3B5<br>(604) 696-9909",coffee,324
49.285342,-123.111848,Starbucks:<br />Seabus - Vancouver BC  (W),"601 West Cordova<br>Vancouver, BC V6B 1G1<br>(604) 685-3758",coffee,325
49.323886,-123.11033,Starbucks:<br />Pemberton Plaza - North Vancouver BC  (W),"1290 Marine Drive<br>North Vancouver, BC V7P 1T2<br>(604) 987-1191",coffee,326
49.225796,-123.108418,Starbucks:<br />Compass @ Langara College - Vancouver BC,"100 W 49th Ave<br>Vancouver, BC v5y 2z6",coffee,327
49.279719,-123.107603,Starbucks:<br />International Village - Vancouver BC  (W),"99 Keefer Pl<br>Vancouver, BC V6B 6N5<br>(604) 687-6116",coffee,328
49.284111,-123.107601,Starbucks:<br />Gastown - Vancouver BC  (W),"199 Water Street<br>Vancouver, BC V6B 1A7<br>(604) 669-6297",coffee,329
49.263071,-123.107122,Starbucks:<br />Broadway & Manitoba - Vancouver BC,"1-111 West Broadway<br>Vancouver, BC V5Y 1P4<br>(604) 874-6883",coffee,330
47.214201,-123.106003,Starbucks:<br />Safeway - Shelton #585 - Shelton WA,"600 Franklin Street<br>Shelton, WA 98584<br>(360) 426-9978",coffee,331
44.069146,-123.103425,Starbucks:<br />Valley River Center - Eugene OR  (W),"1079A Valley River Way<br>Eugene, OR 97401<br>(541) 683-7474",coffee,332
49.323822,-123.103092,Starbucks:<br />Marine Dr & McKay Ave Indigo - North Vancouver BC  (W),"1025 Marine Drive<br>North Vancouver, BC V7P 1S6<br>(604) 990-9009",coffee,333
49.337818,-123.102442,Starbucks:<br />Edgemont - North Vancouver BC  (W),"3127 Edgemont Boulevard<br>North Vancouver, BC V7R 2N7<br>(604) 985-8750",coffee,334
49.260187,-123.10118,Starbucks:<br />Main Street & 12th Avenue - Vancouver BC  (W),"2801 Main Street<br>Vancouver, BC V5T 3G1<br>(604) 872-5717",coffee,335
49.258617,-123.101099,Starbucks:<br />Mt. Pleasant - Vancouver BC  (W),"2980 Main Street<br>Vancouver, BC V5T 3G3<br>(604) 873-5176",coffee,336
49.27292,-123.100121,Starbucks:<br />Main and Terminal - Vancouver BC  (W),"1395 Main Street<br>Vancouver, BC V6A 4B6<br>(604) 602-1783",coffee,337
44.051831,-123.099843,Starbucks:<br />7th & Washington - Eugene - Eugene OR  (W),"472 West 7th Avenue<br>Eugene, OR 97401<br>(541) 684-0984",coffee,338
49.277408,-123.09972,Starbucks:<br />Park Royal Home Depot - West Vancouver BC  (W),"840 Main St<br>West Vancouver, BC V7T 2Z3<br>(604) 925-6630",coffee,339
49.322696,-123.099141,Starbucks:<br />Capilano Mall - North Vancouver BC  (W),"400  935 Marine Drive<br>North Vancouver, BC V7P 1S3<br>(604) 986-6206",coffee,340
49.370837,-123.099133,Starbucks:<br />Grouse Mountain Resort Vancouver - Vancouver BC,"6400 Nancy Green Way<br>Vancouver, BC V7R 4K9<br>(604) 984-0661",coffee,341
49.262857,-123.098682,Starbucks:<br />E Broadway & Scotia - Vancouver BC,"311 E Broadway<br>Vancouver, BC V5T 1W5<br>(604) 875-6337",coffee,342
44.094913,-123.096673,"Starbucks:<br />Delta & Green Acres - Eugene OR  (D, W)","3003 N Delta Hwy<br>Eugene, OR 97408<br>(541) 338-0233",coffee,343
45.520197,-123.095991,Starbucks:<br />Safeway-Forest Grove #406 - Forest Grove OR,"2836 Pacific Ave<br>Forest Grove, OR 97116<br>(503) 359-8700",coffee,344
49.133304,-123.095273,"Starbucks:<br />Ironwood Plaza - Richmond BC  (D, W)","11660-11688 Steveston Hwy<br>Richmond, BC V7A 1N6<br>(604) 241-5900",coffee,345
49.030186,-123.093947,Starbucks:<br />Tsawwassen Ferry Terminal-Kiosk - Delta BC,"1 Ferry Causeway c/o BC Ferry Terminal<br>Delta, BC V4M 4G5<br>(604) 943-6438",coffee,346
49.225039,-123.090642,Starbucks:<br />49th & Fraser - Vancouver BC  (W),"6544 Fraser<br>Vancouver, BC V5X 3T3<br>(604) 322-6773",coffee,347
44.04059,-123.090456,Starbucks:<br />Safeway-Eugene #4288 - Eugene OR,"145 East 18th St<br>Eugene, OR 97401<br>(541) 485-3664",coffee,348
44.049889,-123.089661,Starbucks:<br />Pearl & E. Broadway - Eugene - Eugene OR  (W),"901 Pearl Street<br>Eugene, OR 97401<br>(541) 338-7951",coffee,349
44.040259,-123.089294,Starbucks:<br />Eugene - Eugene OR  (W),"205 E. 18th Street<br>Eugene, OR 97401<br>(541) 465-9813",coffee,350
49.333318,-123.088221,Starbucks:<br />Safeway-North Vancouver #23 - North Vancouver BC,"2601 Westview Dr<br>North Vancouver, BC V7N 3X4",coffee,351
44.011399,-123.087929,Starbucks:<br />Safeway-Eugene #4513 - Eugene OR,"350 E 40th Ave<br>Eugene, OR 97405<br>(541) 342-4067",coffee,352
49.270796,-123.087677,"Starbucks:<br />Terminal & Begg - Vancouver BC  (D, W)","753 Terminal Avenue<br>Vancouver, BC V6A 2M2<br>(604) 696-6410",coffee,353
49.090153,-123.086972,Starbucks:<br />Safeway - Delta #179 - Delta BC,"5275 48 Ave<br>Delta, BC V4K 1W4",coffee,354
49.282916,-123.086356,"Starbucks:<br />850 Powell Street - Vancouver BC  (D, W)","850 Powell Street<br>Vancouver, BC V6A 1H8<br>(604) 215-0711",coffee,355
49.191987,-123.084203,Starbucks:<br />Bridgeport & Sweden - Richmond BC  (W),"12571 Bridgeport Rd<br>Richmond, BC V6V 1J4<br>(604) 279-9328",coffee,356
49.31071,-123.083696,Starbucks:<br />Lonsdale Quay - North Vancouver BC  (W),"145 Chadwick Court<br>North Vancouver, BC V7M 3K1<br>(604) 924-0301",coffee,357
49.280062,-123.081347,Starbucks:<br />Manulife Center - Vancouver BC  (W),"1095 Pender Street<br>Vancouver, BC V6E 2M6<br>(604) 662-4773",coffee,358
44.628749,-123.081096,Starbucks:<br />Safeway-Albany #1659 - Albany OR,"1990 14th Ave SE<br>Albany, OR 97321<br>(541) 812-2380",coffee,359
49.311433,-123.080282,Starbucks:<br />Lonsdale - North Vancouver BC  (W),"131 W. Esplanade<br>North Vancouver, BC V7M 1A1<br>(604) 986-3797",coffee,360
44.045717,-123.079941,Starbucks:<br />13th & Alder - Eugene OR  (W),"801 E. 13th Avenue<br>Eugene, OR 97403<br>(541) 338-4100",coffee,361
49.090247,-123.077755,Starbucks:<br />Ladner - Delta BC  (W),"5263 B Ladner Trunk Rd<br>Delta, BC V4K 1W6<br>(604) 940-8394",coffee,362
49.313226,-123.077262,Starbucks:<br />Lonsdale Ave & 3rd St - North Vancouver BC  (W),"273 Lonsdale Ave<br>North Vancouver, BC V7M 2E9<br>(604) 904-8681",coffee,363
44.632422,-123.075109,Starbucks:<br />Fred Meyer Santiam - Albany - Albany OR  (W),"2504 Santian Hwy<br>Albany, OR 97322<br>(541) 812-2221",coffee,364
44.066785,-123.074967,Starbucks:<br />Oakway Mall - Eugene OR  (W),"65 Oakway Center<br>Eugene, OR 97401<br>(541) 345-9272",coffee,365
44.064833,-123.074062,Starbucks:<br />Albertsons - Colburg #572 - Eugene OR,"311 Coburg Rd<br>Eugene, OR 97401-6109<br>(541) 342-7635",coffee,366
49.320208,-123.072391,Starbucks:<br />13th & Lonsdale - North Vancouver BC  (W),"1323 Lonsdaled Avenue<br>North Vancouver, BC V7M 2H7<br>(604) 983-0976",coffee,367
49.324155,-123.07229,Starbucks:<br />Lonsdale Ave & 17th - North Vancouver BC  (W),"1701 Lonsdale Avenue<br>North Vancouver, BC V7M 2J6<br>(604) 904-9480",coffee,368
49.335796,-123.072031,Starbucks:<br />Lonsdale & 29th - North Vancouver BC  (W),"2925 Lonsdale Avenue<br>North Vancouver, BC V7N 3J3<br>(604) 984-7969",coffee,369
44.078015,-123.070171,Starbucks:<br />Safeway-Eugene #420 - Eugene OR,"1500 Coburg Rd<br>Eugene, OR 97401<br>(541) 485-8658",coffee,370
49.262168,-123.069821,Starbucks:<br />Broadway Station - Vancouver BC  (W),"2517 Commercial Drive<br>Vancouver, BC V5N 4C1<br>(604) 875-6065",coffee,371
49.269117,-123.069655,Starbucks:<br />Commercial Drive - Vancouver BC  (W),"1752 Commercial Drive<br>Vancouver, BC V5N 4A3<br>(604) 251-5397",coffee,372
49.028023,-123.068791,Starbucks:<br />Tsawwassen - Tsawwassen BC  (W),"1359 56th Street<br>Tsawwassen, BC V4L 2A6<br>(604) 943-9668",coffee,373
49.023654,-123.068765,Starbucks:<br />Safeway-Delta #98 - Tsawwassen BC,"1143 56th St<br>Tsawwassen, BC V4L 2A2<br>(604) 948-9255",coffee,374
49.262297,-123.068386,Starbucks:<br />Safeway - Vancouver #189 - Vancouver BC,"1780 E Broadway<br>Vancouver, BC V5N 1W3",coffee,375
44.938422,-123.06276,Starbucks:<br />Safeway-Salem #412 - Salem OR,"1455 Edgewater St NW<br>Salem, OR 97304<br>(503) 365-2170",coffee,376
49.248104,-123.058063,Starbucks:<br />Safeway - Vancouver #114 - Vancouver BC,"890 West 25 Avenue<br>Vancouver, BC V5Z 2E2",coffee,377
49.28118,-123.053773,Starbucks:<br />East Hastings - Vancouver BC  (W),"2531 E Hastings<br>Vancouver, BC V5K 1Z2<br>(604) 253-2055",coffee,378
49.224805,-123.052511,Starbucks:<br />Killarney Shopping Ctre - Vancouver BC  (W),"2685 E 49th Avenue<br>Vancouver, BC V5S 1J9<br>(604) 451-9051",coffee,379
43.79729,-123.052454,Starbucks:<br />Safeway - Cottage Grove #1458 - Cottage Grove OR,"1500 E Main Street<br>Cottage Grove, OR 97424<br>(541) 642-3413",coffee,380
44.950721,-123.051676,"Starbucks:<br />Wallace & Glen Creek- Salem - Salem OR  (D, W)","1124 Wallace Rd NW<br>Salem, OR 97304<br>(503) 362-2119",coffee,381
45.520092,-123.0501,"Starbucks:<br />19th & E Baseline - Cornelias OR  (D, W)","1882 East Baseline Street<br>Cornelias, OR 97113<br>(503) 357-6858",coffee,382
49.28117,-123.046793,"Starbucks:<br />2795 East Hastings St - Vancouver BC  (D, W)","2795 East Hastings St<br>Vancouver, BC V5K 1Z8<br>(604) 215-2424",coffee,383
44.906214,-123.043451,Starbucks:<br />South Salem - Salem OR  (W),"3405 Commercial St NE<br>Salem, OR 97302<br>(503) 391-7193",coffee,384
44.073978,-123.042457,"Starbucks:<br />Crossroads Center - Springfield - Springfield OR  (D, W)","3348 Gateway Street<br>Springfield, OR 97477<br>(541) 726-2763",coffee,385
49.220053,-123.04127,Starbucks:<br />Champlain Mall - Vancouver BC  (W),"7010 Kerr Street<br>Vancouver, BC V5S 4W2<br>(604) 439-9555",coffee,386
44.905834,-123.041252,Starbucks:<br />Fred Meyer - South Salem #355 - Salem OR,"3450 Commercial St SE<br>Salem, OR 97302-4682<br>(503) 585-7322",coffee,387
49.308636,-123.040498,Starbucks:<br />Park & Tilford - North Vancouver BC  (W),"333 Brooksbank Ave.<br>North Vancouver, BC V7J 2S8<br>(604) 986-4255",coffee,388
44.938664,-123.040037,Starbucks:<br />Liberty Plaza - Salem OR  (W),"285 Liberty Street SE<br>Salem, OR 97301<br>(503) 587-9593",coffee,389
44.941415,-123.038342,Starbucks:<br />Salem  OR - Salem OR  (W),"399 Court Street NE<br>Salem, OR 97308<br>(503) 375-2156",coffee,390
44.899834,-123.038337,"Starbucks:<br />Commercial & Oakhill - Salem - Salem OR  (D, W)","3904 Commercial Street SE<br>Salem, OR 97302<br>(503) 363-0172",coffee,391
49.336166,-123.037883,Starbucks:<br />Lynn Valley - North Vancouver BC  (W),"2990 Mountain Highway<br>North Vancouver, BC V7J 3H2<br>(604) 986-6153",coffee,392
49.306462,-123.037272,Starbucks:<br />1331 Main Street - North Vancouver BC  (W),"1331 Main Street<br>North Vancouver, BC V7J 3J7<br>(604) 929-6047",coffee,393
49.232338,-123.032482,Starbucks:<br />Safeway - Vancouver #84 - vancouver BC,"3410 Kingsway Street<br>Vancouver, BC V5R 5L4<br>(604) 493-0090",coffee,394
44.964419,-123.031988,"Starbucks:<br />Salem Parkway- Salem - Salem OR  (D, W)","2505 Liberty St. NE<br>Salem, OR 97301<br>(503) 566-6885",coffee,395
49.258582,-123.031982,Starbucks:<br />Grandview Hwy & Cornett - Vancouver BC,"2840 Bentall Street<br>Vancouver, BC V5M 4H4<br>(604) 434-7114",coffee,396
49.232086,-123.031073,Starbucks:<br />3451 Kingsway - Vancouver BC  (W),"3451 Kingsway<br>Vancouver, BC V5R 5L3<br>(604) 435-4770",coffee,397
44.997755,-123.027981,Starbucks:<br />Schoolhouse Square - Keizer OR  (W),"5001 River Road North<br>Keizer, OR 97303<br>(503) 463-6570",coffee,398
44.94068,-123.024395,Starbucks:<br />Safeway-Salem #1629 - Salem OR,"1265 Center St<br>Salem, OR 97301<br>(503) 566-5540",coffee,399
49.232326,-123.024298,Starbucks:<br />Boundary Plaza-Kingsway & Boundary - Vancouver BC  (W),"3665 Kingsway<br>Vancouver, BC V5R 5W2<br>(604) 431-7535",coffee,400
45.0041,-123.0242,"Starbucks:<br />Keizer Station - Keizer - Keizer OR  (D, W)","2555 Jorie Lane NE<br>Keizer, OR 97307<br>(503) 463-1044",coffee,401
44.063064,-123.02406,Starbucks:<br />Safeway-Springfield #1094 - Springfield OR,"1891 Pioneer Pkwy E<br>Springfield, OR 97477<br>(541) 747-0715",coffee,402
44.996253,-123.023849,Starbucks:<br />Safeway-Keizer #1516 - Keizer OR,"4990 River Rd N<br>Keizer, OR 97303<br>(503) 390-8810",coffee,403
44.873003,-123.0227,Starbucks:<br />Safeway-Salem #1935 - Salem OR,"5660 Commercial St SE<br>Salem, OR 97302<br>(503) 364-4192",coffee,404
49.264468,-123.013851,Starbucks:<br />Tandem - Dawson & Gilmore - Burnaby BC  (W),"4122 Dawson Street<br>Burnaby, BC V5C 0A4<br>(604) 299-2820",coffee,405
49.281059,-123.011656,Starbucks:<br />Carlton Square - Burnaby BC  (W),"4191 Hastings Street<br>Burnaby, BC V5C 2J3<br>(604) 293-1366",coffee,406
38.783593,-123.011184,"Starbucks:<br />Hwy 101 & Cloverdale Blvd - Cloverd - Cloverdale CA  (D, W)","1198 A S. Cloverdale Blvd.<br>Cloverdale, CA 95425<br>(707) 894-4637",coffee,407
46.789152,-123.009896,Starbucks:<br />Great Wolf Lodge Grand Mound  WA - Centralia WA,"20500 Old Hwy 99 SW<br>Centralia, WA 98531<br>(360) 407-0021",coffee,408
49.256304,-123.007774,Starbucks:<br />Gateway Casino and Hotel - Vancouver BC,"4331 Dominion St<br>Vancouver, BC V5G 1C7<br>(604) 453-0750",coffee,409
49.281007,-123.004754,Starbucks:<br />Safeway-Burnaby #42 - Burnaby BC,"4440 E Hastings St<br>Burnaby, BC V5C 2K1<br>(604) 205-6922",coffee,410
38.501956,-123.000424,Starbucks:<br />Safeway - Guerneville #950 - Guerneville CA,"16405 River Rd<br>Guerneville, CA 95446<br>(707) 869-9433",coffee,411
49.266413,-123.000044,Starbucks:<br />Brentwood Mall - Burnaby BC  (W),"4567 Lougheed Highway<br>Burnaby, BC V5C 3Z6<br>(604) 205-9321",coffee,412
49.266413,-123.000044,Starbucks:<br />Brentwood Mall II - Burnaby BC,"4567 Lougheed Highway<br>Burnaby, BC V5C 3Z6<br>(604) 294-0295",coffee,413
49.228531,-123.000018,Starbucks:<br />Station Square - Burnaby BC  (W),"4680 Kingsway<br>Burnaby, BC V5H 4L9<br>(604) 431-6787",coffee,414
49.228302,-122.999374,Starbucks:<br />Eaton Centre Metrotown/Chapters - Burnaby BC  (W),"4700 Kingsway<br>Burnaby, BC V5H 4M1<br>(604) 431-9996",coffee,415
49.228302,-122.999374,Starbucks:<br />Metropolis at Metrotown - Burnaby BC  (W),"4700 Kingsway<br>Burnaby, BC V5H 4M1<br>(604) 436-2500",coffee,416
44.061048,-122.998385,Starbucks:<br />I-105 & Mohawk - Springfield OR  (W),"1661 Mohawk Blvd.<br>Springfield, OR 97477<br>(541) 726-6530",coffee,417
49.207475,-122.996729,Starbucks:<br />Marine Way & Byrne Road - Burnaby BC  (W),"7585 Market Crossing<br>Burnaby, BC V5J 0A3<br>(604) 456-0250",coffee,418
49.227344,-122.996387,Starbucks:<br />Metropolis at Metrotown-Kiosk - Burnaby BC,"4800 Kingsway<br>Burnaby, BC V5H 4J2<br>(604) 430-4166",coffee,419
49.227128,-122.995159,Starbucks:<br />Centrepoint-Kingsway & Miller - Burnaby BC  (W),"4847 Kingsway Ave<br>Burnaby, BC V5H 4T6<br>(604) 431-8615",coffee,420
45.012164,-122.994551,Starbucks:<br />Target Keizer T-2110 - Keizer OR,"6450 NE Keizer Station Blvd<br>Keizer, OR 97303<br>(503) 856-0610",coffee,421
50.094226,-122.991619,Starbucks:<br />Intrawest Whistler Creekside - Whistler BC,"227-2055 Lake Placid Rd<br>Whistler, BC VON IB4<br>(604) 935-5815",coffee,422
45.522022,-122.989051,Starbucks:<br />First & Main St. - Hillsboro - Hillsboro OR,"102 E. Main St.<br>Hillsboro, OR 97123<br>(503) 846-9299",coffee,423
44.968621,-122.983465,Starbucks:<br />Lancaster & Silverton - Salem - Salem OR  (D),"3270 Lancaster Dr. NE<br>Salem, OR 97305<br>(503) 391-7334",coffee,424
44.941296,-122.983167,Starbucks:<br />Lancaster Mall - Salem OR  (W),"831 Lancaster Dr NE<br>Salem, OR 97301<br>(503) 763-2807",coffee,425
44.944548,-122.982734,"Starbucks:<br />1134 Lancaster Dr - Salem OR  (D, W)","1134 Lancaster Drive NE<br>Salem, OR 97301<br>(503) 375-3606",coffee,426
44.968846,-122.98222,Starbucks:<br />Safeway #429 - Salem - Salem OR,"3380 Lancaster Dr NE<br>Salem, OR 97303<br>(503) 399-1502",coffee,427
46.72859,-122.981297,Starbucks:<br />Centralia Mrkt Sq. - Centralia WA  (W),"1161 Harrison Ave.<br>Centralia, WA 98531<br>(360) 807-8801",coffee,428
49.263385,-122.981245,Starbucks:<br />Lougheed & Holdom - Burnaby BC,"2201 Holdom Avenue<br>Burnaby, BC V5B 0A2<br>(604) 294-9552",coffee,429
46.727935,-122.980735,Starbucks:<br />Safeway - Centralia #1495 - Centralia WA,"1129 Harrison<br>Centralia, WA 98521<br>(360) 330-0884",coffee,430
49.199531,-122.978598,Starbucks:<br />Big Bend Crossing - Marine & Byrne - Burnaby BC  (W),"5761 Marine Way<br>Burnaby, BC V5J 0A6<br>(604) 454-1065",coffee,431
46.674816,-122.97821,"Starbucks:<br />Chehalis - Chehalis WA  (D, W)","1531 NW Louisiana Ave<br>Chehalis, WA 98532<br>(360) 740-9140",coffee,432
45.520809,-122.974324,Starbucks:<br />10th Ave - Hillsboro OR  (D),"215 SE 10th Avenue<br>Hillsboro, OR 97123-4237<br>(503) 648-5465",coffee,433
49.317126,-122.969051,Starbucks:<br />Safeway - North Vancouver #162 - North Vancouver BC,"1175 Mt Seymour Road<br>North Vancouver, BC V7H 2Y4",coffee,434
49.28034,-122.967881,Starbucks:<br />Safeway - Burnaby #44 - Burnaby BC,"6564 East Hastings St<br>Burnaby, BC V5B 1S2",coffee,435
49.28034,-122.967752,Starbucks:<br />Kensington Square - Burnaby BC  (W),"6568 Hastings Street<br>Burnaby, BC V5B 1S2<br>(604) 205-9044",coffee,436
46.148668,-122.964327,Starbucks:<br />Fred Meyer - Longview #185 - Longview WA,"3184 Ocean Beach Hwy<br>Longview, WA 98632<br>(360) 636-1010",coffee,437
46.148388,-122.960564,Starbucks:<br />Safeway-Longview #1078 - Longview WA,"2930 Ocean Beach Hwy<br>Longview, WA 98632<br>(360) 575-6240",coffee,438
45.512844,-122.956912,Starbucks:<br />Albertsons - Cornell Rd #591 - Hillsboro OR,"888 NE 25th Ave<br>Hillsboro, OR 97124<br>(503) 681-8927",coffee,439
49.218442,-122.956281,Starbucks:<br />Kingsway & Hall - Highgate Village - Burnaby BC  (W),"7155 Kingsway<br>Burnaby, BC V5E 2V1<br>(604) 527-0464",coffee,440
50.12035,-122.956205,Starbucks:<br />Village North - Whistler BC  (W),"4340 Lorimer Road<br>Whistler, BC V0N 1B4<br>(604) 905-0833",coffee,441
50.11419,-122.95576,Starbucks:<br />Crystal Lodge - 4229 Village Stroll - Whistler BC  (W),"4229 Village Stroll<br>Whistler, BC V0N 1B4<br>(604) 905-5560",coffee,442
45.529837,-122.955334,Starbucks:<br />Hillsboro Marketplace - Hillsboro OR  (W),"880 NE 25th Ave<br>Hillsboro, OR 97124<br>(503) 640-4659",coffee,443
50.115231,-122.953832,Starbucks:<br />Whistler Village - Whistler BC  (W),"4295 Blackcomb Way<br>Whistler, BC V0N 1B4<br>(604) 938-0611",coffee,444
46.654895,-122.953825,Starbucks:<br />Safeway - Chehalis #3525 - Chehalis WA,"1100 S Market Blvd<br>Chehalis, WA 98532<br>(360) 748-3777",coffee,445
49.306245,-122.953131,Starbucks:<br />Deep Cove - North Vancouver BC  (W),"391 North Dollarton<br>North Vancouver, BC V7G 1M9<br>(604) 929-5962",coffee,446
46.116774,-122.949709,Starbucks:<br />Oregon Way & Industrial- Longview - Longview WA  (D),"94 Oregon Way<br>Longview, WA 98632<br>(360) 423-0235",coffee,447
49.190867,-122.946674,"Starbucks:<br />New Westminster First Pro - New Westminster BC  (D, W)","805 Boyd St<br>New Westminster, BC V3M 5X2<br>(604) 523-9278",coffee,448
45.30589,-122.944244,Starbucks:<br />Fred Meyer - Newberg #220 - Newberg OR,"3300 Portland Road Suite 100<br>Newberg, OR 97132<br>(503) 537-1358",coffee,449
47.047906,-122.94255,"Starbucks:<br />Cooper Point Village- Olympia - Olympia WA  (D, W)","315 Cooper Point Road NW<br>Olympia, WA 98502<br>(360) 352-5616",coffee,450
47.046053,-122.94229,Starbucks:<br />Safeway-Olympia #1464 - Olympia WA,"3215 Harrison Ave<br>Olympia, WA 98502<br>(360) 956-3782",coffee,451
47.056769,-122.941218,Starbucks:<br />Top Foods - Olympia - Olympia WA  (W),"1313 Cooper Point Road<br>Olympia, WA 98502<br>(360) 352-8515",coffee,452
46.136608,-122.938506,Starbucks:<br />Safeway-Longview #91 - Longview WA,"1227 15th Ave<br>Longview, WA 98632<br>(360) 575-6600",coffee,453
45.533739,-122.935354,"Starbucks:<br />Cornell Rd & 48th Ave- Hillsboro - Hillsboro OR  (D, W)","1221 NE 48th Ave<br>Hillsboro, OR 97124<br>(503) 693-1239",coffee,454
44.045674,-122.934321,Starbucks:<br />Safeway - Springfield #311 - Springfield OR,"5415 Main Street<br>Springfield, OR 97477<br>(541) 736-3400",coffee,455
47.042493,-122.934265,Starbucks:<br />Capital Mall - Olympia WA  (W),"625 Black Lake Boulevard<br>Olympia, WA 98502<br>(360) 754-0121",coffee,456
40.725608,-122.933064,Starbucks:<br />Tops Super Foods-Weaverville - Weaverville CA,"1665 Main St<br>Weaverville, CA 96093<br>(530) 623-2494",coffee,457
46.146328,-122.92838,Starbucks:<br />Longview/Thriftway - Longview WA  (W),"1015 Ocean Beach Hwy<br>Longview, WA 98632<br>(360) 414-7042",coffee,458
49.21906,-122.927714,Starbucks:<br />Burnaby Crossing-6th & 10th - Burnaby BC  (W),"7892 6th Street<br>Burnaby, BC V3N 3N3<br>(604) 521-4642",coffee,459
46.146382,-122.926316,"Starbucks:<br />820 Ocean Beach Hwy-Longview  WA - Longview WA  (D, W)","808 Ocean Beach Hwy<br>Longview, WA 98632<br>(360) 423-3035",coffee,460
39.048338,-122.925271,Starbucks:<br />Safeway - Lakeport #983 - Lakeport CA,"1071 11th Street<br>Lakeport, CA 95453<br>(707) 263-8072",coffee,461
45.533869,-122.920852,Starbucks:<br />Orenco Station - Hillsboro OR  (W),"6221 NE Cornell Rd<br>Hillsboro, OR 97124<br>(503) 640-0740",coffee,462
49.213059,-122.920487,Starbucks:<br />Safeway - New Westminster #48 - New Westminster BC,"610 6th St<br>New Westminster, BC V3L 3C2<br>(604) 520-5937",coffee,463
49.21347,-122.919788,Starbucks:<br />Westminster Mall - New Westminster BC  (W),"555 6th Street<br>New Westminster, BC V3L 5H1<br>(604) 520-6011",coffee,464
46.998251,-122.915284,Starbucks:<br />Fred Meyer -Tumwater #659 - Tumwater WA,"555 Trosper Rd SW<br>Tumwater, WA 98501<br>(360) 753-7900",coffee,465
49.222979,-122.914782,Starbucks:<br />Royal Square - New Westminster BC  (W),"800 McBride Blvd.<br>New Westminster, BC V3L 2B8<br>(604) 525-5277",coffee,466
49.222979,-122.914782,Starbucks:<br />Safeway-New Westminster #58 - New Westminster BC,"800 McBride Boulevard<br>New Westminster, BC V3L 2B8",coffee,467
46.999905,-122.91466,Starbucks:<br />Tumwater - Tumwater WA  (W),"5312 Little Rock Road SW<br>Tumwater, WA 98512<br>(360) 352-4340",coffee,468
46.999357,-122.908064,"Starbucks:<br />Capitol Blvd & Trosper St  Tumwat - Tumwater WA  (D, W)","5300 Capitol Blvd SE<br>Tumwater, WA 98501<br>(360) 352-3429",coffee,469
49.20323,-122.907854,Starbucks:<br />6th & Columbia - New Westminster BC  (W),"601 Columbia<br>New Westminster, BC V3M 1A7<br>(604) 527-7978",coffee,470
44.526767,-122.907033,Starbucks:<br />Safeway-Lebanon #1558 - Lebanon OR,"1983 S Santiem Hwy<br>Lebanon, OR 97355<br>(541) 259-5700",coffee,471
45.4978,-122.9058,Starbucks:<br />Fred Meyer-Hillsboro #143 - Tualatin OR,"6495 SE Tualatin Valley Hwy<br>Tualatin, OR 97123<br>(503) 848-4550",coffee,472
45.498121,-122.905446,Starbucks:<br />Reedville Crossing- Hillsboro - Hillsboro OR  (D),"2995 SE 75th Ave.<br>Hillsboro, OR 97123<br>(503) 649-3561",coffee,473
45.550216,-122.904293,Starbucks:<br />Tanasbourne West - Hillsboro OR  (W),"22055 NW Imbrie Drive<br>Hillsboro, OR 97124<br>(503) 693-8831",coffee,474
45.551213,-122.902186,Starbucks:<br />Fred Meyer - Hillsboro #661 - Hillsboro OR,"22075 NW Imbrie Dr.<br>Hillsboro, OR 97229<br>(503) 747-1100",coffee,475
46.141529,-122.902074,Starbucks:<br />Safeway-Kelso #2637 - Kelso WA,"411 Three Rivers Drive<br>Kelso, WA 98626",coffee,476
47.04379,-122.90128,Starbucks:<br />Downtown Olympia - Olympia WA  (W),"530 Capital Way South<br>Olympia, WA 98501<br>(360) 753-7771",coffee,477
45.537977,-122.900247,"Starbucks:<br />Cornelius Pass & Butler  Hillsboro - Hillsboro OR  (D, W)","7399 NE Butler St.<br>Hillsboro, OR 97124<br>(503) 640-5067",coffee,478
47.018673,-122.8984,Starbucks:<br />Safeway-Tumwater #1503 - Tumwater WA,"520 Cleveland<br>Tumwater, WA 98501<br>(360) 943-1830",coffee,479
49.251182,-122.89547,Starbucks:<br />Lougheed Mall - Burnaby BC  (W),"9855 Austin Avenue<br>Burnaby, BC V3J 1N4<br>(604) 415-5336",coffee,480
49.251182,-122.89547,Starbucks:<br />Safeway - Burnaby #121 - Burnaby BC,"9855 Austin Rd<br>Burnaby, BC V3J 1N4<br>(604) 420-3420",coffee,481
49.228505,-122.892841,Starbucks:<br />E. Columbia & Sherbrooke - New Westminster BC  (W),"411 East Columbia Street<br>New Westminster, BC V3L 3X3<br>(604) 522-7573",coffee,482
45.4009,-122.8924,Starbucks:<br />Murray & Scholls - Beaverton OR  (W),"14600 SW Murray Scholls Dr<br>Beaverton, OR 97007-9712<br>(503) 590-7886",coffee,483
49.119407,-122.89051,Starbucks:<br />Safeway - North Delta #14 - Delta BC,"6401 120 St<br>Delta, BC V4E 3G3",coffee,484
49.120895,-122.890501,Starbucks:<br />Sunshine Hills - Delta BC  (W),"6483 120th St<br>Delta, BC V4E 3G5<br>(604) 598-1112",coffee,485
49.134486,-122.890435,Starbucks:<br />Scott & 72nd - Delta BC  (W),"7221 120th St<br>Delta, BC V4C 6P5<br>(604) 543-9797",coffee,486
49.138651,-122.890277,Starbucks:<br />Safeway-Surrey #92 - Surrey BC,"7450 120 St<br>Surrey, BC V3W 3M9<br>(604) 594-7341",coffee,487
49.162053,-122.889237,Starbucks:<br />Nordel Annex - Nordel & 120th - Surrey BC,"12025 Nordel Way<br>Surrey, BC V3W 1W1<br>(604) 591-5449",coffee,488
49.13413,-122.887554,Starbucks:<br />Strawberry Hill Chptrs - Surrey BC  (W),"12101 72nd Avenue<br>Surrey, BC V3W 2M1<br>(604) 502-7188",coffee,489
45.152734,-122.882845,"Starbucks:<br />111 Arney Road - Woodburn OR  (D, W)","111 Arney Road NE<br>Woodburn, OR 97071<br>(503) 981-1758",coffee,490
47.4369,-122.8788,"Starbucks:<br />Belfair Valley Plaza-Belfair  WA - Belfair WA  (D, W)","23965 NE SR3<br>Belfair, WA 98528<br>(360) 275-0939",coffee,491
42.343334,-122.877739,Starbucks:<br />Rogue Valley Mall - Medford - Medford OR  (W),"1600 North Riverside  Ste 2072<br>Medford, OR 97501<br>(541) 608-7441",coffee,492
45.535052,-122.876906,"Starbucks:<br />Cornell & Stucki - Hillsboro OR  (D, W)","2002 NW Stucki Avenue<br>Hillsboro, OR 97124<br>(503) 645-5029",coffee,493
47.046459,-122.874974,Starbucks:<br />Ralphs Thriftway-Olympia #664 - Olympia WA,"1908 East 4th Ave.<br>Olympia, WA 98506<br>(219) 239-2105",coffee,494
49.311329,-122.874784,Starbucks:<br />Ioco Rd & Guildford Way-Suter Brook - Port Moody BC,"176 Brew St<br>Port Moody, BC V3H 0E7<br>(604) 461-3922",coffee,495
45.540434,-122.874174,Starbucks:<br />Tanasbourne - Aloha OR  (W),"18320 NW Evergreen Pkwy<br>Aloha, OR 97006<br>(503) 629-4911",coffee,496
38.609086,-122.873638,Starbucks:<br />Safeway - Healdsburg #998 - Healdsburg CA,"1115 Vine<br>Healdsburg, CA 95448<br>(707) 431-7102",coffee,497
42.34359,-122.872794,Starbucks:<br />Medford (B&N) - Medford OR  (W),"1408 Biddle Rd<br>Medford, OR 97501<br>(541) 732-1970",coffee,498
42.352662,-122.872476,Starbucks:<br />Fred Meyer-Medford #195 - Medford OR,"2424 Crater Lake Highway<br>Medford, OR 97504<br>(541) 779-6158",coffee,499
38.609163,-122.871805,Starbucks:<br />Vine & Healdsburg - Healdsburg - Healdsburg CA  (W),"1075 Vine Street<br>Healdsburg, CA 95448<br>(707) 431-0509",coffee,500
45.535498,-122.867533,Starbucks:<br />Safeway-Hillsboro #1230 - Hillsboro OR,"2177 NW 185th<br>Hillsboro, OR 97124<br>(503) 645-6631",coffee,501
49.032354,-122.867522,Starbucks:<br />Ocean Park - Surrey BC  (W),"1658 128th Street<br>Surrey, BC V4A 3V3<br>(604) 531-2663",coffee,502
42.33179,-122.867485,Starbucks:<br />Safeway-Medford #525 - Medford OR,"1003 Medford Ctr<br>Medford, OR 97504<br>(541) 608-3680",coffee,503
49.177085,-122.866896,"Starbucks:<br />Cedar Hills-96th & 128th - Surrey BC  (D, W)","12840 96th Avenue<br>Surrey, BC V3V 6A8<br>(604) 582-2974",coffee,504
45.53921,-122.866826,Starbucks:<br />Tanasbourne Drive Thru - Beaverton OR  (D),"2711 NW Town Center Dr. #1<br>Beaverton, OR 97006-8951<br>(503) 617-4586",coffee,505
45.55877,-122.866657,Starbucks:<br />Albertsons-West Union #596 - Portland OR,"18425 NW West Union Rd<br>Portland, OR 97229<br>(503) 533-5998",coffee,506
49.276729,-122.860162,Starbucks:<br />Port Moody - Port Moody BC  (W),"2350 St Johns S<br>Port Moody, BC V3H 2A9<br>(604) 939-5755",coffee,507
45.478841,-122.859617,Starbucks:<br />Bales Thriftway Farmington - Aloha OR,"17675 SW Farmington Rd<br>Aloha, OR 97007<br>(503) 649-8597",coffee,508
42.362186,-122.858174,Starbucks:<br />Safeway - Medford #1643 - Medford OR,"3169 Crater Lake Hwy<br>Medford, OR 97501<br>(541) 774-4340",coffee,509
42.36011,-122.85743,Starbucks:<br />Hwy 62 & Delta Waters - Medford - Medford OR  (D),"1730 Delta Waters Rd<br>Medford, OR 97504<br>(541) 773-5746",coffee,510
42.313096,-122.856829,Starbucks:<br />1303 Cntr Dr./Mdfrd-FMyr) - Medford OR  (W),"1303 Center Dr<br>Medford, OR 97501<br>(541) 772-8885",coffee,511
45.3531,-122.8554,Starbucks:<br />Target Sherwood T-1868 - Sherwood OR,"21365 SW Baler Way<br>Sherwood, OR 97140<br>(503) 610-6000",coffee,512
45.352059,-122.85529,Starbucks:<br />Safeway-Sherwood #1800 - Sherwood OR,"20685 Roy Rodgers Rd<br>Sherwood, OR 97140<br>(503) 625-4760",coffee,513
45.3529,-122.853294,Starbucks:<br />Safeway - Sherwood #1800 - Sherwood OR,"20685 Roy Rodgers Rd<br>Sherwood, OR 97140<br>(503) 625-4760",coffee,514
49.187011,-122.845553,Starbucks:<br />Central City Shopping Centre - Surrey BC,"10153 King George Hwy<br>Surrey, BC V3T 2W1<br>(604) 584-9372",coffee,515
49.190915,-122.845505,Starbucks:<br />Safeway-Surrey #1 - Surrey BC,"10355 King George Hwy<br>Surrey, BC V3T 2W6",coffee,516
49.13637,-122.845463,Starbucks:<br />Newton Village - Surrey BC  (W),"7380 King George Highway<br>Surrey, BC V3W 5A5<br>(604) 597-8892",coffee,517
49.190903,-122.845247,Starbucks:<br />London Station - Surrey BC  (W),"10362 King George Highway<br>Surrey, BC V3T 2W5<br>(604) 581-2632",coffee,518
47.043135,-122.845214,Starbucks:<br />Albertsons-Olympia #415 - Olympia WA,"3520 Pacific Ave SE<br>Olympia, WA 98501<br>(360) 459-9340",coffee,519
45.3611,-122.8436,Starbucks:<br />Sherwood - Sherwood OR  (W),"20661 SW Roy Rogers Rd<br>Sherwood, OR 97140-9277<br>(503) 925-9262",coffee,520
45.369717,-122.842906,Starbucks:<br />Albertsons-Sherwood #579 - Sherwood OR,"16030 SW Tualitin Sherwood Rd<br>Sherwood, OR 97140<br>(503) 625-9581",coffee,521
45.517425,-122.841557,Starbucks:<br />Walker Rd /Fred Meyer - Beaverton OR  (W),"16005 S.W. Walker Road<br>Beaverton, OR 97006-4944<br>(503) 533-9216",coffee,522
49.132871,-122.838732,Starbucks:<br />Safeway - Surrey #184 - Surrey BC,"7165 138 Street<br>Surrey, BC V3W 7T9",coffee,523
49.263326,-122.837551,Starbucks:<br />Como Lake - Coquitlam BC  (W),"1980A Como Lake Avenue<br>Coquitlam, BC V3J 3R3<br>(604) 937-7781",coffee,524
45.554963,-122.836697,Starbucks:<br />OFC-Portland #201 - Portland OR,"4756 NW Bethany Blvd<br>Portland, OR 97229<br>(503) 533-0552",coffee,525
45.553667,-122.835497,Starbucks:<br />Bethany Village - Portland OR  (W),"4708 NW Bethany Blvd<br>Portland, OR 97229<br>(503) 533-2233",coffee,526
47.041145,-122.833556,Starbucks:<br />Lacey - Lacey WA  (W),"700 Sleater-Kinney Road SE<br>Lacey, WA 98503<br>(360) 491-8247",coffee,527
45.849495,-122.831987,Starbucks:<br />Safeway - St. Helens #424 - St. Helens OR,"795 Columbia River Hwy<br>St. Helens, OR 97051<br>(503) 397-2630",coffee,528
45.150965,-122.831558,Starbucks:<br />Safeway-Woodburn #1976 - Woodburn OR,"1550 N Pacific Hwy<br>Woodburn, OR 97071<br>(503) 982-2756",coffee,529
47.049352,-122.831345,Starbucks:<br />Safeway-Olympia #1952 - Olympia WA,"4230 Martin Way E<br>Olympia, WA 98516<br>(360) 456-7132",coffee,530
47.040402,-122.831186,Starbucks:<br />Fred Meyer - Lacey #186 - Lacey WA,"700 Sleater-Kinney Road SE<br>Lacey, WA 98503<br>(360) 438-6450",coffee,531
45.848487,-122.830425,"Starbucks:<br />Hwy 30 & Gable- St Helens - St Helens OR  (D, W)","2298 Gable Rd  Suite 130<br>St Helens, OR 97051<br>(503) 397-1259",coffee,532
47.048495,-122.830415,Starbucks:<br />Martin Way Station - Olympia WA  (W),"4250 Martin Way<br>Olympia, WA 98516<br>(360) 923-5910",coffee,533
49.282297,-122.827803,Starbucks:<br />Heritage Mountain - Port Moody BC  (W),"330-221 Ioco Road<br>Port Moody, BC V3H 4H2<br>(604) 469-3318",coffee,534
47.452387,-122.827236,Starbucks:<br />QFC - Belfair #101 - Belfair WA,"NE 201 State Route 300<br>Belfair, WA 98528<br>(360) 275-2050",coffee,535
38.404706,-122.826666,Starbucks:<br />Safeway-Sebastopol #933 - Sebastopol CA,"406 N. Main St.<br>Sebastopol, CA 95472<br>(707) 823-1101",coffee,536
45.440707,-122.825901,Starbucks:<br />Safeway-Beaverton #2631 - Beaverton OR,"14555 SW Teal Blvd<br>Beaverton, OR 97224<br>(503) 590-9755",coffee,537
45.475325,-122.825358,Starbucks:<br />Safeway-Beaverton #1073 - Beaverton OR,"6194 SW Murray Blvd<br>Beaverton, OR 97005",coffee,538
46.999036,-122.824336,Starbucks:<br />College St & Yelm Hwy (Relo)- Lacey - LACEY WA  (D),"4700 AVERY LANE SE<br>LACEY, WA 98503<br>(360) 491-8927",coffee,539
45.43151,-122.824051,Starbucks:<br />Albertsons-Barrows Rd #576 - Tigard OR,"14300 SW Barrows Rd<br>Tigard, OR 97223<br>(541) 746-1653",coffee,540
46.997581,-122.822163,Starbucks:<br />Safeway-Lacey #543 - Lacey WA,"4700 Yelm Rd SE<br>Lacey, WA 98503<br>(360) 438-0203",coffee,541
49.249069,-122.817822,Starbucks:<br />Austin Station - Coquitlam BC  (W),"2662 Austin Avenue<br>Coquitlam, BC V3K 6C4<br>(604) 931-2115",coffee,542
38.391871,-122.817394,Starbucks:<br />Gravenstein Hwy & Redwood - Sebasto - Sebastopol CA  (W),"962 Gravenstein Hwy S<br>Sebastopol, CA 95472<br>(707) 829-5029",coffee,543
45.527596,-122.81438,Starbucks:<br />Safeway-Cedar Mill #1525 - Portland OR,"13485 NW Cornell Rd<br>Portland, OR 97225<br>(503) 350-2080",coffee,544
49.061324,-122.812928,Starbucks:<br />Alder Crossing - 148th & KGH - Surrey BC  (W),"3288 King George Hwy<br>Surrey, BC V4P 1A5<br>(604) 531-8535",coffee,545
38.5483,-122.8128,Starbucks:<br />Windsor Town Green - Windsor - Windsor CA  (W),"1001 McCleland Dr<br>Windsor, CA 95492<br>(707) 837-0432",coffee,546
45.493568,-122.810398,Starbucks:<br />SW Cedar Hills Blvd - Beaverton OR  (D),"3590 Cedar Hills Boulevard<br>Beaverton, OR 97005<br>(503) 641-1504",coffee,547
49.283741,-122.809302,Starbucks:<br />Eagle Ridge - Lansdowne & Guildford - Coquitlam BC  (W),"1192 Lansdowne Drive<br>Coquitlam, BC V3E 1J7<br>(604) 464-1408",coffee,548
47.051146,-122.809282,Starbucks:<br />Top Foods - Lacey - Lacey WA  (W),"5600 Martin Way<br>Lacey, WA 98516<br>(360) 459-9285",coffee,549
45.496729,-122.808671,Starbucks:<br />Beaverton Mall-Relocation - Beaverton OR,"3205 SW Cedar Hills Blvd.<br>Beaverton, OR 97005<br>(503) 626-5233",coffee,550
45.525802,-122.807393,Starbucks:<br />Bales Thriftway Cedar Mill - Portland OR,"12675 NW Cornell Rd<br>Portland, OR 97229",coffee,551
38.562027,-122.805852,Starbucks:<br />Safeway - Windsor #1434 - Windsor CA,"9080 Brooks Rd<br>Windsor, CA 95492<br>(707) 837-2000",coffee,552
38.549708,-122.805843,Starbucks:<br />Windsor - Windsor CA  (W),"8786 Lakewood Drive<br>Windsor, CA 95492<br>(707) 838-9875",coffee,553
45.443166,-122.805492,Starbucks:<br />Scholls Ferry/Tigard - Tigard OR  (W),"12700 SW Dakota<br>Tigard, OR 97223<br>(503) 579-2333",coffee,554
49.296991,-122.802906,Starbucks:<br />Westwood Plateau Village - Coquitlam BC,"1410 Parkway Blvd<br>Coquitlam, BC V3E 3J7<br>(604) 552-8449",coffee,555
45.4872,-122.8025,Starbucks:<br />Tektronix - Beaverton OR,"1400 SW Karl Braun Dr<br>Beaverton, OR 97077<br>(503) 627-6921",coffee,556
49.190128,-122.802395,Starbucks:<br />Guildford Town Centre - Surrey BC  (W),"2695 Guildford Town Ctr<br>Surrey, BC V3R 7C1<br>(604) 930-2277",coffee,557
49.104479,-122.801978,Starbucks:<br />Panorama Village -Hwy 10 & 152nd - Surrey BC  (D),"15161 #10 Hwy<br>Surrey, BC V3S 9A5<br>(604) 574-0664",coffee,558
49.163634,-122.80131,Starbucks:<br />Safeway-Surrey #62 - Surrey BC,"8860 152 St<br>Surrey, BC V3R 4E4<br>(604) 589-4774",coffee,559
49.1641,-122.801303,Starbucks:<br />Surrey - Surrey BC  (W),"8898 152nd Street<br>Surrey, BC V3R 4E4<br>(604) 951-9373",coffee,560
49.056871,-122.801266,"Starbucks:<br />South Surrey Power Centre - Surrey BC  (D, W)","3061 152nd Street<br>Surrey, BC V4P 3K1<br>(604) 542-5417",coffee,561
49.050049,-122.801229,Starbucks:<br />Tribeca - 152nd & KGH - Surrey BC  (W),"2670 152nd St<br>Surrey, BC V4P 1M8<br>(604) 531-7641",coffee,562
49.033499,-122.801115,Starbucks:<br />Whiterock II - South Surrey BC  (W),"1730 152nd Street<br>South Surrey, BC V4A 4N4<br>(604) 541-1170",coffee,563
49.187444,-122.800823,"Starbucks:<br />Guildford Drive-Thru - Surrey BC  (D, W)","10174 - 152nd Street<br>Surrey, BC V3S 8E7<br>(604) 951-6633",coffee,564
49.276908,-122.799364,Starbucks:<br />Coquitlam Centre - Coquitlam BC  (W),"2600-2929 Barnet Highway<br>Coquitlam, BC V3B 5R5<br>(604) 468-7891",coffee,565
45.489975,-122.797756,Starbucks:<br />117th & Canyon - Beaverton - Beaverton OR  (W),"4037 SW 117th Avenue<br>Beaverton, OR 97005<br>(503) 520-8889",coffee,566
49.046054,-122.796807,Starbucks:<br />Safeway-Surrey #47 - Surrey BC,"15355 24 Ave<br>Surrey, BC V4A 2H9<br>(604) 535-8960",coffee,567
49.046054,-122.796807,Starbucks:<br />Whiterock - Surrey BC  (W),"15355 24th Avenue<br>Surrey, BC V4A 2H9<br>(604) 531-0774",coffee,568
49.275701,-122.795493,Starbucks:<br />Chapters - Pinetree Village - Coquitlam BC,"2991 Lougheed Hwy<br>Coquitlam, BC V3B 6J6<br>(604) 944-6848",coffee,569
49.275701,-122.795493,Starbucks:<br />Coquitlam - Coquitlam BC  (W),"2991 Lougheed Highway<br>Coquitlam, BC V3B 6J6<br>(604) 944-8032",coffee,570
45.406846,-122.795378,Starbucks:<br />Safeway-Tigard (King City) #1478 - Tigard OR,"15570 SW Pacific Hwy<br>Tigard, OR 97233<br>(503) 598-6001",coffee,571
45.403249,-122.79532,Starbucks:<br />Albertsons-Tigard #565 - Tigard OR,"16200 SW Pacific Hwy<br>Tigard, OR 97224<br>(503) 684-5070",coffee,572
44.806549,-122.794315,Starbucks:<br />Safeway-Stayton #1527 - Stayton OR,"1535 N 1st Ave<br>Stayton, OR 97383<br>(503) 769-4814",coffee,573
45.48655,-122.793799,Starbucks:<br />Beaverton - Beaverton OR  (W),"11405 SW Beaverton-Hillsdale Hwy<br>Beaverton, OR 97005<br>(503) 626-6549",coffee,574
45.003145,-122.793409,Starbucks:<br />Safeway - Silverton #1580 - Silverton OR,"301 Westfield St<br>Silverton, OR 97381<br>(503) 873-1800",coffee,575
45.515917,-122.790763,Starbucks:<br />Albertsons-Barnes Rd #582 - Portland OR,"11070-C SW Barnes Rd<br>Portland, OR 97255<br>(503) 646-9676",coffee,576
45.459629,-122.789322,Starbucks:<br />Hall & Nimbus- Beaverton - Beaverton OR  (W),"8400 SW Nimbus Ave<br>Beaverton, OR 97008<br>(503) 644-8215",coffee,577
45.486547,-122.787423,Starbucks:<br />Target Beaverton T-344 - Beaverton OR,"10775 SW Beaverton-Hillsdale Hwy<br>Beaverton, OR 97005<br>(503) 626-8345",coffee,578
45.421906,-122.784111,"Starbucks:<br />Tigard Marketplace - Tigard OR  (D, W)","13560 SW Pacific Hwy<br>Tigard, OR 97223<br>(503) 598-0638",coffee,579
45.451483,-122.783337,Starbucks:<br />Washington Square - Tigard OR  (W),"9467 SW Washington Square Road<br>Tigard, OR 97223<br>(503) 620-3761",coffee,580
48.107084,-122.783042,Starbucks:<br />Safeway - Port Townsend #538 - Port Townsend WA,"442 W Sims Way<br>Port Townsend, WA 98368<br>(360) 385-2806",coffee,581
45.452574,-122.782997,Starbucks:<br />Washington Square III - Tigard OR  (W),"9359 SW Washington Square Road<br>Tigard, OR 97223<br>(503) 968-9232",coffee,582
53.910666,-122.782244,"Starbucks:<br />West Central & 15th Avenue - PG - Prince George BC  (D, W)","1477 West Central<br>Prince George, BC V2M 5S5<br>(250) 561-2532",coffee,583
53.919158,-122.782191,Starbucks:<br />Spruceland - Prince George BC  (W),"643  West Central Street<br>Prince George, BC V2M 3C6<br>(250) 614-1811",coffee,584
49.262247,-122.781686,Starbucks:<br />Shaughnessy Street - Port Coquitlam BC  (W),"2564 Shaughnessy Street<br>Port Coquitlam, BC V3C 3G4<br>(604) 552-0674",coffee,585
38.510233,-122.780615,"Starbucks:Airport & Aviation - Santa Rosa - Santa Rosa CA  (D, W)","269 Aviation Blvd.<br>Santa Rosa, CA 95403<br>(707) 542-5964",coffee,586
53.89951,-122.780489,"Starbucks:<br />Pine Ctre -Prince George - Prince George BC  (D, W)","3161 Massey Drive<br>Prince George, BC V2N 2S9<br>(250) 562-4272",coffee,587
45.537387,-122.779434,Starbucks:<br />Forest Heights- Portland - Portland OR  (W),"2021 NW Miller Road<br>Portland, OR 97229<br>(503) 297-0142",coffee,588
49.198779,-122.779071,Starbucks:<br />108th & 160th - Fraser Heights - Surrey BC  (W),"101-15976 108th Avenue<br>Surrey, BC V4N 5V6<br>(604) 582-6233",coffee,589
45.446456,-122.778215,Starbucks:<br />Washington Square Too - Portland OR  (W),"10218 SW Washington Square Rd.<br>Portland, OR 97223<br>(503) 670-9828",coffee,590
49.26659,-122.777183,Starbucks:<br />Safeway-Port Coquitlam #93 - Port Coquitlam BC,"1100-2850 Shaughnessy St<br>Port Coquitlam, BC V3C 6K5",coffee,591
49.044914,-122.776674,Starbucks:<br />Village Indigo at Grandview Corners - Surrey BC,"2453 161A Street<br>Surrey, BC V3S 0M6<br>(604) 535-7741",coffee,592
53.868504,-122.776096,"Starbucks:<br />College Heights - Prince George BC  (D, W)","5212 Domano Blvd<br>Prince George, BC V2N 4A1<br>(250) 906-0001",coffee,593
45.301054,-122.774263,Starbucks:<br />Boones Ferry & Wilsonville - Wilsonville OR  (W),"30299 SW Boones Ferry Rd<br>Wilsonville, OR 97070<br>(503) 582-9741",coffee,594
45.486446,-122.77309,"Starbucks:<br />Valley Plaza- Beaverton - Beaverton OR  (D, W)","9350 SW Beaverton HIllsdale Hwy<br>Beaverton, OR 97005<br>(503) 292-1573",coffee,595
38.452583,-122.773032,Starbucks:<br />Fulton & Guerneville -  Santa Rosa - Santa Rosa CA  (W),"2547 Guerneville Rd<br>Santa Rosa, CA 95401<br>(707) 544-4256",coffee,596
49.264297,-122.767144,"Starbucks:<br />Oxford & Lougheed - Port Coquitlam BC  (D, W)","2840 Oxford Street<br>Port Coquitlam, BC V3B 5L7<br>(604) 464-0399",coffee,597
45.382944,-122.766273,Starbucks:<br />Tualatin / Haggens - Tualatin OR  (W),"8515 SW Tualatin Sherwood Rd.<br>Tualatin, OR 97062<br>(503) 691-1826",coffee,598
45.3356,-122.7654,Starbucks:<br />SW Elligsen & I-5 - Wilsonville OR  (W),"25600 SW Argyle<br>Wilsonville, OR 97070<br>(503) 582-0215",coffee,599
47.059767,-122.764703,Starbucks:<br />Hawk's Prairie - Lacey WA  (W),"1401 Marvin Rd NE<br>Lacey, WA 98516<br>(360) 491-1190",coffee,600
47.059366,-122.764685,Starbucks:<br />Safeway - Olympia #1173 - Olympia WA,"1243 Marvin Rd NE<br>Olympia, WA 98516<br>(360) 438-3914",coffee,601
45.381318,-122.763686,Starbucks:<br />Hedges Green / Tualatin - Tualatin OR  (W),"8639 SW Tualatin Sherwood Road<br>Tualatin, OR 97062<br>(503) 691-9448",coffee,602
45.303013,-122.762068,Starbucks:<br />Wilsonville - Wilsonville OR  (W),"8269 SW Wilsonville Rd<br>Wilsonville, OR 97070<br>(503) 582-9569",coffee,603
45.379908,-122.759057,"Starbucks:<br />Martinazzi Square - Tualatin - Tualatin OR  (D, W)","19321 SW Martinazzi Ave<br>Tualatin, OR 97062<br>(503) 612-1614",coffee,604
48.032426,-122.757947,Starbucks:<br />QFC - Port Hadlock #870 - Port Hadlock WA,"1890 Irondale Road<br>Port Hadlock, WA 98339<br>(360) 385-1070",coffee,605
45.485742,-122.756974,Starbucks:<br />Raleigh Hills - Portland OR  (W),"4735 SW 77th Avenue<br>Portland, OR 97225<br>(503) 291-7191",coffee,606
49.27114,-122.755012,Starbucks:<br />Prairie Mall - Coquitlam BC  (W),"1470 Prairie Avenue<br>Coquitlam, BC V3B 5M8<br>(604) 945-5177",coffee,607
45.590164,-122.754597,Starbucks:<br />St. Johns - Portland OR  (W),"8539 N Lombard<br>Portland, OR 97203<br>(503) 289-2310",coffee,608
45.51566,-122.754443,Starbucks:<br />Barnes & Miller - Portland OR  (W),"7515 SW Barnes Rd<br>Portland, OR 97225<br>(503) 296-9597",coffee,609
45.515061,-122.753954,Starbucks:<br />QFC-Portland #202 - Portland OR,"7525 SW Barnes Rd<br>Portland, OR 97225<br>(503) 203-0027",coffee,610
45.438093,-122.753876,Starbucks:<br />North Tigard - Tigard OR  (W),"11636 SW Pacific Highway<br>Tigard, OR 97223<br>(503) 639-0925",coffee,611
45.588745,-122.752769,Starbucks:<br />Safeway-St. Johns #1951 - Portland OR,"8330 N Ivanhoe St<br>Portland, OR 97203<br>(503) 205-1599",coffee,612
38.451371,-122.752464,Starbucks:<br />Marlow & Guerneville - Santa Rosa - Santa Rosa CA  (W),"1791 Marlow Rd<br>Santa Rosa, CA 95401<br>(707) 576-7360",coffee,613
38.452091,-122.752453,Starbucks:<br />Safeway - Santa Rosa #956 - Santa Rosa CA,"1799 Marlow Road<br>Santa Rosa, CA 95401<br>(707) 528-3062",coffee,614
45.465717,-122.752041,Starbucks:<br />Garden Home Marketplace - Portland OR  (W),"7315 SW Garden Home Road<br>Portland, OR 97225<br>(503) 244-3741",coffee,615
45.440324,-122.750837,Starbucks:<br />Fred Meyer-Tigard #375 - Tigard OR,"11565 SW Pacific Hwy<br>Tigard, OR 97223<br>(503) 293-7053",coffee,616
45.394424,-122.75048,Starbucks:<br />Point at Bridgeport- Tualatin - Tigard OR  (W),"7118 SW Hazelfern Rd<br>Tigard, OR 97224<br>(503) 620-0563",coffee,617
38.50005,-122.75017,Starbucks:<br />Old Redwood & Pacific Heights - Lar - Larkfield CA  (W),"4745 Old Redwood Dr<br>Larkfield, CA 95403<br>(707) 576-8796",coffee,618
45.913349,-122.748336,"Starbucks:<br />1999 Pacific Ave- Woodland  WA - Woodland WA  (D, W)","1999 Pacific Ave<br>Woodland, WA 98674<br>(360) 225-4709",coffee,619
45.912234,-122.748319,Starbucks:<br />Safeway - Woodland #1762 - Woodland WA,"1725 Pacific Ave<br>Woodland, WA 98674<br>(360) 225-4370",coffee,620
45.382792,-122.748029,Starbucks:<br />Nyberg & I-5- Tualatin - Tualatin OR  (W),"7131 Nyberg St.<br>Tualatin, OR 97062<br>(503) 612-6581",coffee,621
49.256351,-122.747003,Starbucks:<br />Lougheed & Ottawa - Port Coquitlam BC  (W),"2325 Ottawa Street<br>Port Coquitlam, BC V3B 8A4<br>(604) 552-1671",coffee,622
45.408698,-122.745752,Starbucks:<br />Sequoia Pkwy - Portland OR  (W),"15350 SW Sequoia Pkwy<br>Portland, OR 97224<br>(503) 620-7211",coffee,623
53.914948,-122.743637,Starbucks:<br />Ramada Plaza Prince George - Prince George BC,"444 George St<br>Prince George, BC V2L 1R6",coffee,624
45.397256,-122.741762,Starbucks:<br />Safeway-Lake Grove #1047 - Lake Oswego OR,"17779 SW Lower Boones Ferry Rd<br>Lake Oswego, OR 97035<br>(503) 675-2500",coffee,625
38.406257,-122.741395,Starbucks:<br />Stony Point & Yuba - Santa Rosa - Santa Rosa CA  (W),"2780 Stony Point Road<br>Santa Rosa, CA 95407<br>(707) 545-7057",coffee,626
38.42777,-122.741349,"Starbucks:<br />Stony Point & Sebastopol - Santa Ro - Santa Rosa CA  (D, W)","760 Stony Point Road<br>Santa Rosa, CA 95407<br>(707) 546-5046",coffee,627
45.420596,-122.738933,Starbucks:<br />Centerpoint - Lake Oswego - Lake Oswego OR  (W),"8 Centerpointe Drive<br>Lake Oswego, OR 97035<br>(503) 624-7065",coffee,628
45.399264,-122.738485,Starbucks:<br />Lake Oswego Crossing - Lake Oswego OR  (W),"17449 Boones Ferry Rd<br>Lake Oswego, OR 97035<br>(503) 534-2938",coffee,629
45.586633,-122.738136,Starbucks:<br />Fred Meyer - Peninsula #255 - Portland OR,"6850 North Lombard<br>Portland, OR 97203-620<br>(503) 240-2700",coffee,630
45.417037,-122.737578,Starbucks:<br />Kruse Way - Lake Oswego OR  (W),"5800 Meadows Rd<br>Lake Oswego, OR 97035<br>(503) 598-9846",coffee,631
38.479332,-122.73494,"Starbucks:<br />Hopper & Cleveland - Santa Rosa - Santa Rosa CA  (D, W)","860 Hopper Avenue<br>Santa Rosa, CA 95403<br>(707) 528-3116",coffee,632
45.509642,-122.734927,Starbucks:<br />Sylvan Retail- Portland - Portland OR  (W),"1850 SW Skyline Blvd<br>Portland, OR 97221<br>(503) 292-1691",coffee,633
49.12001,-122.734908,Starbucks:<br />Cloverdale Crossing-64th & 176th - Cloverdale BC  (W),"6476 176th Street<br>Cloverdale, BC V3S 4G3<br>(604) 574-5106",coffee,634
45.497759,-122.726991,Starbucks:<br />Albertsons - Shattuck Rd #505 - Portland OR,"5415 S.W. Beav.-Hillsdale Hwy.<br>Portland, OR 97221<br>(503) 246-1713",coffee,635
49.247198,-122.726379,Starbucks:<br />Safeway-Coquitlam #20 - Coquitlam BC,"3205 Lougheed Hwy.<br>Coquitlam, BC V3B 1C6<br>(250) 941-8212",coffee,636
49.104226,-122.724766,Starbucks:<br />Cloverdale - Surrey BC  (W),"17967 56th Avenue<br>Surrey, BC V3S 1E2<br>(604) 576-7828",coffee,637
45.407899,-122.724353,Starbucks:<br />Lake Grove - Lake Oswego OR  (W),"16398 SW Boones Ferry Road<br>Lake Oswego, OR 97035<br>(503) 699-3007",coffee,638
45.409405,-122.722862,Starbucks:<br />Albertsons-Lake Grove #521 - Lake Oswego OR,"16199 Boones Ferry Rd.<br>Lake Oswego, OR 97035<br>(503) 635-3429",coffee,639
45.452901,-122.722086,Starbucks:<br />Barbur & Capitol - Portland OR  (W),"10010 S.W. Barbur Blvd.<br>Portland, OR 97219<br>(503) 244-9884",coffee,640
38.346911,-122.720323,Starbucks:<br />Target Rohnert Park T-852 - Rohnert Park CA,"475 Rohnert Park Expy W<br>Rohnert Park, CA 94928-7907<br>(707) 586-2901",coffee,641
38.348686,-122.720245,"Starbucks:<br />Rohnert Park & Labath - Rohnert Pk - Rohnert Park CA  (D, W)","459 Rohnert Park Expressway W<br>Rohnert Park, CA 94928<br>(707) 206-0772",coffee,642
38.461256,-122.717211,Starbucks:<br />Safeway-Santa Rosa #1576 - Santa Rosa CA,"2210 Mendocino Ave<br>Santa Rosa, CA 95403<br>(707) 569-3100",coffee,643
38.462006,-122.717094,Starbucks:<br />Mendocino & Steele - Santa Rosa - Santa Rosa CA  (W),"2240 Mendocino Avenue<br>Santa Rosa, CA 95403<br>(707) 576-7582",coffee,644
47.7084,-122.7143,Starbucks:<br />Bangor Submarine Base - Silverdale WA,"2600 Ohio Street<br>Silverdale, WA 98315-505<br>(360) 779-6894",coffee,645
42.196284,-122.713729,Starbucks:<br />Ashland - Ashland OR  (W),"120 East Main Street<br>Ashland, OR 97520<br>(541) 488-1195",coffee,646
38.412382,-122.712763,"Starbucks:<br />Santa Rosa & Yolanda - Santa Rosa - Santa Rosa CA  (D, W)","2688 Santa Rosa Ave<br>Santa Rosa, CA 95407<br>(707) 527-1006",coffee,647
38.440401,-122.711772,Starbucks:<br />Santa Rosa (B&N) - Santa Rosa CA  (W),"200 D Street<br>Santa Rosa, CA 94504<br>(707) 577-0665",coffee,648
38.429602,-122.711463,Starbucks:<br />Santa Rosa Plaza - Santa Rosa - Santa Rosa CA  (W),"1071 Santa Rosa Plaza<br>Santa Rosa, CA 95401<br>(707) 569-8457",coffee,649
45.468641,-122.711426,Starbucks:<br />Multnomah - Portland OR  (W),"7737 SW Capitol Highway<br>Portland, OR 97219<br>(503) 245-1961",coffee,650
45.54627,-122.711377,Starbucks:<br />29th & Yeon- Portland - Portland OR  (W),"3275 NW 29th Ave<br>Portland, OR 97210<br>(503) 241-4997",coffee,651
38.41875,-122.710683,Starbucks:<br />Santa Rosa Marketplace - Santa Rosa CA  (W),"2200 Santa Rosa Avenue<br>Santa Rosa, CA 95404<br>(707) 541-0257",coffee,652
38.347656,-122.709565,Starbucks:<br />Safeway - Rohnert Park #918 - Rohnert Park CA,"6340 Commerce Blvd<br>Rohnert Park, CA 94928<br>(707) 584-8942",coffee,653
38.346972,-122.709547,Starbucks:<br />Rohnert Park - Commerce - Rohnert Park CA  (W),"6356 Commerce Blvd.<br>Rohnert Park, CA 94928-2404<br>(707) 588-8999",coffee,654
38.417181,-122.709483,Starbucks:<br />Target Santa Rosa T-937 - Santa Rosa CA,"1980 Santa Rosa Ave<br>Santa Rosa, CA 95407<br>(707) 575-0665",coffee,655
49.124001,-122.702281,"Starbucks:<br />Clayton Crossing - Surrey BC  (D, W)","18737 Fraser Highway<br>Surrey, BC V3S 7Y3<br>(604) 575-7800",coffee,656
45.433681,-122.702157,Starbucks:<br />Oswego Town Square - Lake Oswego OR  (W),"3 Monroe Parkway<br>Lake Oswego, OR 97035<br>(503) 675-9097",coffee,657
45.5232,-122.698805,Starbucks:<br />23rd & Burnside - Portland OR  (W),"2328 W. Burnside  Suite #2<br>Portland, OR 97210<br>(503) 228-8777",coffee,658
45.531937,-122.698706,Starbucks:<br />23rd & Overton - Portland OR  (W),"1301 NW 23rd Ave.<br>Portland, OR 97210<br>(503) 227-2038",coffee,659
45.527008,-122.698517,Starbucks:<br />NW 23rd Relocation - Portland OR  (W),"605 NW 23rd<br>Portland, OR 97210<br>(503) 223-1747",coffee,660
38.328981,-122.697546,Starbucks:<br />E. Cotati & Lasalle - Cotati - Cotati CA  (W),"640 E. Cotati Avenue<br>Cotati, CA 94931<br>(707) 794-9016",coffee,661
45.478212,-122.694593,Starbucks:<br />Hillsdale  OR - Portland OR  (W),"6326 SW Capitol Highway<br>Portland, OR 97201<br>(503) 977-3638",coffee,662
45.530094,-122.694249,Starbucks:<br />21st & Lovejoy - Portland OR  (W),"1012 NW 21st Ave<br>Portland, OR 97210<br>(503) 224-9686",coffee,663
45.523724,-122.693303,Starbucks:<br />Fred Meyer-Staduim #360 - Portland OR,"100 NW 20th Place<br>Portland, OR 97209<br>(503) 273-2004",coffee,664
